$GPTXT,1,1,2,GNSS Config: Loaded,agc=[2 0 0],swc=[c6 0]*36
$GPTXT,32,10,4,ACQ,sv=10 PR=477 freq=-900 time=96ms*06
$GPTXT,32,18,4,ACQ,sv=18 PR=145 freq=-3200 time=96ms*3A
$GPTXT,32,23,4,ACQ,sv=23 PR=53 freq=-2200 time=96ms*0D
$GPTXT,32,25,4,ACQ,sv=25 PR=25 freq=3500 time=96ms*27
$GPTXT,32,27,4,ACQ,sv=27 PR=47 freq=-2200 time=96ms*08
$GPTXT,32,32,4,ACQ,sv=32 PR=548 freq=500 time=96ms*2A
$GPTXT,6,1,4,ACQ, sv=10 PR=549 freq=-900 time=24ms*24
$GPTXT,6,2,4,ACQ, sv=18 PR=158 freq=-3200 time=24ms*13
$GPTXT,6,3,4,ACQ, sv=23 PR=287 freq=-2150 time=24ms*1C
$GPTXT,6,4,4,ACQ, sv=25 PR=10 freq=3500 time=24ms*0C
$GPTXT,6,5,4,ACQ, sv=27 PR=384 freq=-2350 time=22ms*18
$GPTXT,6,6,4,ACQ, sv=32 PR=439 freq=450 time=24ms*00
$GPRMC,000005.00,V,,,,,0.0,,060180,,,N*59
$GPGGA,000005.00,,,,,0,0,0.00,0,M,0,M,,0*53
$GPGSA,A,1,,,,,,,,,,,,,0.00,0.00,0.00,1*1D
$GPGSV,2,1,6,10,0,0,53,18,0,0,46,23,0,0,46,25,0,0,0*74
$GPGSV,2,2,6,27,0,0,50,32,0,0,53*48
$GPTXT,2,1,4,TRK,FO=0 0,rssi=[6010 0 0 0],GDOP=0.0,C=0,pps_d=0 0 0,e=0,refSv=0,CP=0,BG=0 0 0 0 0*19
$GPTXT,2,2,4,bd=0 0 0 0 0 0 msg=0 0 0 0 0 0 0,0 0 0 0 0 sk=27 0 0 0 0 0 0,0 0 0 0 0 0 0 0 0 0 0 rm=0 0 bdGlo=0 0 0 0 0 0 *49
$GPRMC,000006.00,V,,,,,0.0,,060180,,,N*5A
$GPGGA,000006.00,,,,,0,0,0.00,0,M,0,M,,0*50
$GPGSA,A,1,,,,,,,,,,,,,0.00,0.00,0.00,1*1D
$GPGSV,2,1,6,10,0,0,53,18,0,0,46,23,0,0,48,25,0,0,0*7A
$GPGSV,2,2,6,27,0,0,51,32,0,0,53*49
$GPTXT,2,1,4,TRK,FO=0 0,rssi=[5d0d 0 0 0],GDOP=0.0,C=0,pps_d=0 0 0,e=0,refSv=0,CP=0,BG=0 0 0 0 0*1B
$GPTXT,2,2,4,bd=0 0 0 0 0 0 msg=0 0 0 0 0 0 0,0 0 0 0 0 sk=33 0 0 0 0 0 0,0 0 0 0 0 0 0 0 0 0 0 rm=0 0 bdGlo=0 0 0 0 0 0 *4C
$GPRMC,000007.00,V,,,,,0.0,,060180,,,N*5B
$GPGGA,000007.00,,,,,0,0,0.00,0,M,0,M,,0*51
$GPGSA,A,1,,,,,,,,,,,,,0.00,0.00,0.00,1*1D
$GPGSV,2,1,6,10,0,0,53,18,0,0,46,23,0,0,47,25,0,0,0*75
$GPGSV,2,2,6,27,0,0,49,32,0,0,53*40
$GPTXT,2,1,4,TRK,FO=0 0,rssi=[5783 0 0 0],GDOP=0.0,C=0,pps_d=0 0 0,e=0,refSv=0,CP=0,BG=0 0 0 0 0*17
$GPTXT,2,2,4,bd=0 0 0 0 0 0 msg=0 0 0 0 0 0 0,0 0 0 0 0 sk=39 0 0 0 0 0 0,0 0 0 0 0 0 0 0 0 0 0 rm=0 0 bdGlo=0 0 0 0 0 0 *46
$GPRMC,000008.00,V,,,,,0.0,,060180,,,N*54
$GPGGA,000008.00,,,,,0,0,0.00,0,M,0,M,,0*5E
$GPGSA,A,1,,,,,,,,,,,,,0.00,0.00,0.00,1*1D
$GPGSV,2,1,6,10,0,0,53,18,0,0,47,23,0,0,47,25,0,0,0*74
$GPGSV,2,2,6,27,0,0,51,32,0,0,54*4E
$GPTXT,2,1,4,TRK,FO=0 0,rssi=[5590 0 0 0],GDOP=0.0,C=0,pps_d=0 0 0,e=0,refSv=0,CP=0,BG=0 0 0 0 0*17
$GPTXT,2,2,4,bd=0 0 0 0 0 0 msg=0 0 0 0 0 0 0,0 0 0 0 0 sk=45 0 0 0 0 0 0,0 0 0 0 0 0 0 0 0 0 0 rm=0 0 bdGlo=0 0 0 0 0 0 *4D
$GPRMC,000009.00,V,,,,,0.0,,060180,,,N*55
$GPGGA,000009.00,,,,,0,0,0.00,0,M,0,M,,0*5F
$GPGSA,A,1,,,,,,,,,,,,,0.00,0.00,0.00,1*1D
$GPGSV,2,1,6,10,0,0,54,18,0,0,48,23,0,0,46,25,0,0,0*7D
$GPGSV,2,2,6,27,0,0,50,32,0,0,54*4F
$GPTXT,2,1,4,TRK,FO=0 0,rssi=[5a49 0 0 0],GDOP=0.0,C=0,pps_d=0 0 0,e=0,refSv=0,CP=0,BG=0 0 0 0 0*47
$GPTXT,2,2,4,bd=0 0 0 0 0 0 msg=0 0 0 0 0 0 0,0 0 0 0 0 sk=51 0 0 0 0 0 0,0 0 0 0 0 0 0 0 0 0 0 rm=0 0 bdGlo=0 0 0 0 0 0 *48
$GPRMC,000010.00,V,,,,,0.0,,060180,,,N*5D
$GPGGA,000010.00,,,,,0,0,0.00,0,M,0,M,,0*57
$GPGSA,A,1,,,,,,,,,,,,,0.00,0.00,0.00,1*1D
$GPGSV,2,1,6,10,0,0,53,18,0,0,47,23,0,0,45,25,0,0,0*76
$GPGSV,2,2,6,27,0,0,50,32,0,0,54*4F
$GPTXT,2,1,4,TRK,FO=0 0,rssi=[594a 0 0 0],GDOP=0.0,C=0,pps_d=0 0 0,e=0,refSv=0,CP=0,BG=0 0 0 0 0*47
$GPTXT,2,2,4,bd=0 0 0 0 0 0 msg=0 0 0 0 0 0 0,0 0 0 0 0 sk=52 0 0 0 0 5 0,0 0 0 0 0 0 0 0 0 0 0 rm=0 0 bdGlo=0 0 0 0 0 0 *4E
$GPRMC,000011.00,V,,,,,0.0,,060180,,,N*5C
$GPGGA,000011.00,,,,,0,0,0.00,0,M,0,M,,0*56
$GPGSA,A,1,,,,,,,,,,,,,0.00,0.00,0.00,1*1D
$GPGSV,2,1,6,10,0,0,53,18,0,0,46,23,0,0,45,25,0,0,0*77
$GPGSV,2,2,6,27,0,0,49,32,0,0,53*40
$GPTXT,2,1,4,TRK,FO=0 0,rssi=[58c3 0 0 0],GDOP=0.0,C=0,pps_d=0 0 0,e=0,refSv=0,CP=0,BG=0 0 0 0 0*43
$GPTXT,2,2,4,bd=0 0 0 0 0 0 msg=0 0 0 0 0 0 0,0 0 0 0 0 sk=53 0 0 0 0 10 0,0 0 0 0 0 0 0 0 0 0 0 rm=0 0 bdGlo=0 0 0 0 0 0 *7B
$GPRMC,000012.00,V,,,,,0.0,,060180,,,N*5F
$GPGGA,000012.00,,,,,0,0,0.00,0,M,0,M,,0*55
$GPGSA,A,1,,,,,,,,,,,,,0.00,0.00,0.00,1*1D
$GPGSV,2,1,6,10,0,0,53,18,0,0,43,23,0,0,48,25,0,0,0*7F
$GPGSV,2,2,6,27,0,0,51,32,0,0,53*49
$GPTXT,2,1,4,TRK,FO=0 0,rssi=[5a9c 0 0 0],GDOP=0.0,C=0,pps_d=0 0 0,e=0,refSv=0,CP=0,BG=0 0 0 0 0*10
$GPTXT,2,2,4,bd=0 0 0 0 0 0 msg=0 0 0 0 0 0 0,0 0 0 0 0 sk=54 0 0 0 0 15 0,0 0 0 0 0 0 0 0 0 0 0 rm=0 0 bdGlo=0 0 0 0 0 0 *79
$GPRMC,000013.00,V,,,,,0.0,,060180,,,N*5E
$GPGGA,000013.00,,,,,0,0,0.00,0,M,0,M,,0*54
$GPGSA,A,1,,,,,,,,,,,,,0.00,0.00,0.00,1*1D
$GPGSV,2,1,6,10,0,0,53,18,0,0,43,23,0,0,49,25,0,0,0*7E
$GPGSV,2,2,6,27,0,0,51,32,0,0,53*49
$GPTXT,2,1,4,TRK,FO=0 0,rssi=[5c8a 0 0 0],GDOP=0.0,C=0,pps_d=0 0 0,e=0,refSv=0,CP=0,BG=0 0 0 0 0*11
$GPTXT,2,2,4,bd=0 0 0 0 0 0 msg=0 0 0 0 0 0 0,0 0 0 0 0 sk=55 0 0 0 0 20 0,0 0 0 0 0 0 0 0 0 0 0 rm=0 0 bdGlo=0 0 0 0 0 0 *7E
$GPRMC,000014.00,V,,,,,0.0,,060180,,,N*59
$GPGGA,000014.00,,,,,0,0,0.00,0,M,0,M,,0*53
$GPGSA,A,1,,,,,,,,,,,,,0.00,0.00,0.00,1*1D
$GPGSV,2,1,6,10,0,0,53,18,0,0,44,23,0,0,50,25,0,0,0*71
$GPGSV,2,2,6,27,0,0,51,32,0,0,53*49
$GPTXT,2,1,4,TRK,FO=0 0,rssi=[5d14 0 0 0],GDOP=0.0,C=0,pps_d=0 0 0,e=0,refSv=0,CP=0,BG=0 0 0 0 0*4A
$GPTXT,2,2,4,bd=0 0 0 0 5 0 msg=0 0 0 0 0 0 0,0 0 0 0 0 sk=56 0 0 0 0 25 0,0 0 0 0 0 0 0 0 0 0 0 rm=0 0 bdGlo=0 0 0 0 0 0 *7D
$GPRMC,000015.00,V,,,,,0.0,,060180,,,N*58
$GPGGA,000015.00,,,,,0,0,0.00,0,M,0,M,,0*52
$GPGSA,A,1,,,,,,,,,,,,,0.00,0.00,0.00,1*1D
$GPGSV,2,1,6,10,0,0,53,18,0,0,44,23,0,0,49,25,0,0,0*79
$GPGSV,2,2,6,27,0,0,52,32,0,0,53*4A
$GPTXT,2,1,4,TRK,FO=0 0,rssi=[561b 0 0 0],GDOP=0.0,C=0,pps_d=0 0 0,e=0,refSv=0,CP=0,BG=0 0 0 0 0*4E
$GPTXT,2,2,4,bd=0 0 0 0 5 0 msg=0 0 0 0 0 0 0,0 0 0 0 0 sk=57 0 0 0 0 30 0,0 0 0 0 0 0 0 0 0 0 0 rm=0 0 bdGlo=0 0 0 0 0 0 *78
$GPRMC,000016.00,V,,,,,0.0,,060180,,,N*5B
$GPGGA,000016.00,,,,,0,0,0.00,0,M,0,M,,0*51
$GPGSA,A,1,,,,,,,,,,,,,0.00,0.00,0.00,1*1D
$GPGSV,2,1,6,10,0,0,53,18,0,0,43,23,0,0,50,25,0,0,0*76
$GPGSV,2,2,6,27,0,0,51,32,0,0,53*49
$GPTXT,2,1,4,TRK,FO=0 0,rssi=[5887 0 0 0],GDOP=0.0,C=0,pps_d=0 0 0,e=0,refSv=0,CP=0,BG=0 0 0 0 0*1C
$GPTXT,2,2,4,bd=0 0 0 0 5 0 msg=0 0 0 0 0 0 0,0 0 0 0 0 sk=58 0 0 0 0 35 0,0 0 0 0 0 0 0 0 0 0 0 rm=0 0 bdGlo=0 0 0 0 0 0 *72
$GPRMC,000017.00,V,,,,,0.0,,060180,,,N*5A
$GPGGA,000017.00,,,,,0,0,0.00,0,M,0,M,,0*50
$GPGSA,A,1,,,,,,,,,,,,,0.00,0.00,0.00,1*1D
$GPGSV,2,1,6,10,0,0,53,18,0,0,44,23,0,0,50,25,0,0,0*71
$GPGSV,2,2,6,27,0,0,50,32,0,0,54*4F
$GPTXT,2,1,4,TRK,FO=0 0,rssi=[5833 0 0 0],GDOP=0.0,C=0,pps_d=0 0 0,e=0,refSv=0,CP=0,BG=0 0 0 0 0*13
$GPTXT,2,2,4,bd=0 0 0 0 5 0 msg=0 0 0 0 0 0 0,0 0 0 0 0 sk=59 0 0 0 0 40 0,0 0 0 0 0 0 0 0 0 0 0 rm=0 0 bdGlo=0 0 0 0 0 0 *71
$GPRMC,000018.00,V,,,,,0.0,,060180,,,N*55
$GPGGA,000018.00,,,,,0,0,0.00,0,M,0,M,,0*5F
$GPGSA,A,1,,,,,,,,,,,,,0.00,0.00,0.00,1*1D
$GPGSV,2,1,7,10,0,0,53,18,0,0,44,23,0,0,49,25,0,0,0*78
$GPGSV,2,2,7,27,0,0,50,32,0,0,53,1,0,0,0*48
$GPTXT,2,1,4,TRK,FO=0 0,rssi=[58a7 0 0 0],GDOP=0.0,C=0,pps_d=0 0 0,e=0,refSv=0,CP=0,BG=0 0 0 0 0*45
$GPTXT,2,2,4,bd=0 0 0 0 5 0 msg=0 0 0 0 0 0 0,0 0 0 0 0 sk=61 0 0 0 0 45 0,0 0 0 0 0 0 0 0 0 0 0 rm=0 0 bdGlo=0 0 0 0 0 0 *7F
$GPRMC,000019.00,V,,,,,0.0,,060180,,,N*54
$GPGGA,000019.00,,,,,0,0,0.00,0,M,0,M,,0*5E
$GPGSA,A,1,,,,,,,,,,,,,0.00,0.00,0.00,1*1D
$GPGSV,2,1,8,10,0,0,53,18,0,0,44,23,0,0,50,25,0,0,0*7F
$GPGSV,2,2,8,27,0,0,51,32,0,0,53,1,0,0,0,2,0,0,0*44
$GPTXT,2,1,4,TRK,FO=0 0,rssi=[5b19 0 0 0],GDOP=0.0,C=0,pps_d=0 0 0,e=0,refSv=0,CP=0,BG=0 0 0 0 0*41
$GPTXT,2,2,4,bd=0 0 0 0 5 0 msg=0 0 0 0 0 0 0,0 0 0 0 0 sk=64 0 0 0 0 50 0,0 0 0 0 0 0 0 0 0 0 0 rm=0 0 bdGlo=0 0 0 0 0 0 *7E
$GPRMC,000020.00,V,,,,,0.0,,060180,,,N*5E
$GPGGA,000020.00,,,,,0,0,0.00,0,M,0,M,,0*54
$GPGSA,A,1,,,,,,,,,,,,,0.00,0.00,0.00,1*1D
$GPGSV,3,1,9,10,0,0,52,18,0,0,47,23,0,0,50,25,0,0,0*7D
$GPGSV,3,2,9,27,0,0,51,32,0,0,53,1,0,0,0,2,0,0,0*44
$GPGSV,3,3,9,3,0,0,0*43
$GPTXT,2,1,4,TRK,FO=0 0,rssi=[6152 0 0 0],GDOP=0.0,C=0,pps_d=0 0 0,e=0,refSv=0,CP=0,BG=0 0 0 0 0*1E
$GPTXT,2,2,4,bd=5 0 0 0 5 0 msg=0 0 0 0 0 0 0,0 0 0 0 0 sk=68 0 0 0 0 55 0,0 0 0 0 0 0 0 0 0 0 0 rm=0 0 bdGlo=0 0 0 0 0 0 *72
$GPRMC,000021.00,V,,,,,0.0,,060180,,,N*5F
$GPGGA,000021.00,,,,,0,0,0.00,0,M,0,M,,0*55
$GPGSA,A,1,,,,,,,,,,,,,0.00,0.00,0.00,1*1D
$GPGSV,3,1,9,10,0,0,53,18,0,0,46,23,0,0,50,25,0,0,0*7D
$GPGSV,3,2,9,27,0,0,50,32,0,0,53,1,0,0,0,2,0,0,0*45
$GPGSV,3,3,9,3,0,0,0*43
$GPTXT,2,1,4,TRK,FO=0 0,rssi=[5fea 0 0 0],GDOP=0.0,C=0,pps_d=0 0 0,e=0,refSv=0,CP=0,BG=0 0 0 0 0*49
$GPTXT,2,2,4,bd=5 0 0 0 5 0 msg=0 0 0 0 0 0 0,0 0 0 0 0 sk=72 0 0 0 0 60 0,0 0 0 0 0 0 0 0 0 0 0 rm=0 0 bdGlo=0 0 0 0 0 0 *7F
$GPRMC,000022.00,V,,,,,0.0,,060180,,,N*5C
$GPGGA,000022.00,,,,,0,0,0.00,0,M,0,M,,0*56
$GPGSA,A,1,,,,,,,,,,,,,0.00,0.00,0.00,1*1D
$GPGSV,3,1,9,10,0,0,53,18,0,0,48,23,0,0,49,25,0,0,0*7B
$GPGSV,3,2,9,27,0,0,49,32,0,0,50,1,0,0,0,2,0,0,0*4E
$GPGSV,3,3,9,3,0,0,0*43
$GPTXT,2,1,4,TRK,FO=0 0,rssi=[5cc4 0 0 0],GDOP=0.0,C=0,pps_d=0 0 0,e=0,refSv=0,CP=0,BG=0 0 0 0 0*1F
$GPTXT,2,2,4,bd=5 0 0 0 5 0 msg=0 0 0 0 0 0 0,0 0 0 0 0 sk=76 0 0 0 0 65 0,0 0 0 0 0 0 0 0 0 0 0 rm=0 0 bdGlo=0 0 0 0 0 0 *7E
$GPRMC,000023.00,V,,,,,0.0,,060180,,,N*5D
$GPGGA,000023.00,,,,,0,0,0.00,0,M,0,M,,0*57
$GPGSA,A,1,,,,,,,,,,,,,0.00,0.00,0.00,1*1D
$GPGSV,3,1,10,10,0,0,53,18,0,0,47,23,0,0,49,25,0,0,0*4C
$GPGSV,3,2,10,27,0,0,50,32,0,0,53,1,0,0,0,2,0,0,0*7D
$GPGSV,3,3,10,3,0,0,0,4,0,0,0*7F
$GPTXT,2,1,4,TRK,FO=0 0,rssi=[5b68 0 0 0],GDOP=0.0,C=0,pps_d=0 0 0,e=0,refSv=0,CP=0,BG=0 0 0 0 0*47
$GPTXT,2,2,4,bd=5 0 0 0 5 0 msg=0 0 0 0 0 0 0,0 0 0 0 0 sk=81 0 0 0 0 70 0,0 0 0 0 0 0 0 0 0 0 0 rm=0 0 bdGlo=0 0 0 0 0 0 *72
$GPRMC,000024.00,V,,,,,0.0,,060180,,,N*5A
$GPGGA,000024.00,,,,,0,0,0.00,0,M,0,M,,0*50
$GPGSA,A,1,,,,,,,,,,,,,0.00,0.00,0.00,1*1D
$GPGSV,3,1,10,10,0,0,53,18,0,0,48,23,0,0,49,25,0,0,0*43
$GPGSV,3,2,10,27,0,0,51,32,0,0,52,1,0,0,0,2,0,0,0*7D
$GPGSV,3,3,10,3,0,0,0,4,0,0,0*7F
$GPTXT,2,1,4,TRK,FO=0 0,rssi=[5959 0 0 0],GDOP=0.0,C=0,pps_d=0 0 0,e=0,refSv=0,CP=0,BG=0 0 0 0 0*1E
$GPTXT,2,2,4,bd=5 0 0 0 5 0 msg=0 0 0 0 0 0 0,0 0 0 0 0 sk=86 0 0 0 0 75 0,0 0 0 0 0 0 0 0 0 0 0 rm=0 0 bdGlo=0 0 0 0 0 0 *70
$GPRMC,000025.00,V,,,,,0.0,,060180,,,N*5B
$GPGGA,000025.00,,,,,0,0,0.00,0,M,0,M,,0*51
$GPGSA,A,1,,,,,,,,,,,,,0.00,0.00,0.00,1*1D
$GPGSV,3,1,10,10,0,0,53,18,0,0,49,23,0,0,50,25,0,0,0*4A
$GPGSV,3,2,10,27,0,0,52,32,0,0,53,1,0,0,0,2,0,0,0*7F
$GPGSV,3,3,10,3,0,0,0,4,0,0,0*7F
$GPTXT,2,1,4,TRK,FO=0 0,rssi=[5c34 0 0 0],GDOP=0.0,C=0,pps_d=0 0 0,e=0,refSv=0,CP=0,BG=0 0 0 0 0*4F
$GPTXT,2,2,4,bd=5 0 0 0 5 0 msg=0 0 0 0 0 0 0,0 0 0 0 0 sk=91 0 0 0 0 80 0,0 0 0 0 0 0 0 0 0 0 0 rm=0 0 bdGlo=0 0 0 0 0 0 *7C
$GPRMC,000026.00,V,,,,,0.0,,060180,,,N*58
$GPGGA,000026.00,,,,,0,0,0.00,0,M,0,M,,0*52
$GPGSA,A,1,,,,,,,,,,,,,0.00,0.00,0.00,1*1D
$GPGSV,3,1,10,10,0,0,53,18,0,0,47,23,0,0,50,25,0,0,0*44
$GPGSV,3,2,10,27,0,0,52,32,0,0,53,1,0,0,0,2,0,0,0*7F
$GPGSV,3,3,10,3,0,0,0,4,0,0,0*7F
$GPTXT,2,1,4,TRK,FO=0 0,rssi=[5b65 0 0 0],GDOP=0.0,C=0,pps_d=0 0 0,e=0,refSv=0,CP=0,BG=0 0 0 0 0*4A
$GPTXT,2,2,4,bd=5 5 0 0 5 0 msg=0 0 0 0 0 0 0,0 0 0 0 0 sk=96 0 0 0 0 85 0,0 0 0 0 0 0 0 0 0 0 0 rm=0 0 bdGlo=0 0 0 0 0 0 *7B
$GPRMC,000027.00,V,,,,,0.0,,060180,,,N*59
$GPGGA,000027.00,,,,,0,0,0.00,0,M,0,M,,0*53
$GPGSA,A,1,,,,,,,,,,,,,0.00,0.00,0.00,1*1D
$GPGSV,3,1,10,10,0,0,53,18,0,0,48,23,0,0,50,25,0,0,0*4B
$GPGSV,3,2,10,27,0,0,51,32,0,0,52,1,0,0,0,2,0,0,0*7D
$GPGSV,3,3,10,3,0,0,0,4,0,0,0*7F
$GPTXT,2,1,4,TRK,FO=0 0,rssi=[59e2 0 0 0],GDOP=0.0,C=0,pps_d=0 0 0,e=0,refSv=0,CP=0,BG=0 0 0 0 0*45
$GPTXT,2,2,4,bd=5 5 0 0 5 0 msg=0 0 0 0 0 0 0,0 0 0 0 0 sk=101 0 0 0 0 90 0,0 0 0 0 0 0 0 0 0 0 0 rm=0 0 bdGlo=0 0 0 0 0 0 *40
$GPRMC,000028.00,V,,,,,0.0,,060180,,,N*56
$GPGGA,000028.00,,,,,0,0,0.00,0,M,0,M,,0*5C
$GPGSA,A,1,,,,,,,,,,,,,0.00,0.00,0.00,1*1D
$GPGSV,3,1,10,10,0,0,53,18,0,0,48,23,0,0,49,25,0,0,0*43
$GPGSV,3,2,10,27,0,0,52,32,0,0,53,1,0,0,32,2,0,0,0*4E
$GPGSV,3,3,10,3,0,0,0,4,0,0,0*7F
$GPTXT,2,1,4,TRK,FO=0 0,rssi=[5bbc 0 0 0],GDOP=0.0,C=0,pps_d=0 0 0,e=0,refSv=0,CP=0,BG=0 0 0 0 0*48
$GPTXT,2,2,4,bd=5 5 0 0 5 0 msg=0 0 0 0 0 0 0,0 0 0 0 0 sk=106 0 0 0 0 95 0,0 0 0 0 0 0 0 0 0 0 0 rm=0 0 bdGlo=0 0 0 0 0 0 *42
$GPRMC,000029.00,V,,,,,0.0,,060180,,,N*57
$GPGGA,000029.00,,,,,0,0,0.00,0,M,0,M,,0*5D
$GPGSA,A,1,,,,,,,,,,,,,0.00,0.00,0.00,1*1D
$GPGSV,3,1,10,10,0,0,52,18,0,0,50,23,0,0,50,25,0,0,0*43
$GPGSV,3,2,10,27,0,0,51,32,0,0,53,1,0,0,33,2,0,0,31*7E
$GPGSV,3,3,10,3,0,0,0,4,0,0,0*7F
$GPTXT,2,1,4,TRK,FO=0 0,rssi=[5c38 0 0 0],GDOP=0.0,C=0,pps_d=0 0 0,e=0,refSv=0,CP=0,BG=0 0 0 0 0*43
$GPTXT,2,2,4,bd=5 5 0 0 5 0 msg=0 0 0 0 0 0 0,0 0 0 0 0 sk=111 0 0 0 0 100 0,0 0 0 0 0 0 0 0 0 0 0 rm=0 0 bdGlo=0 0 0 0 0 0 *79
$GPRMC,000030.00,V,,,,,0.0,,060180,,,N*5F
$GPGGA,000030.00,,,,,0,0,0.00,0,M,0,M,,0*55
$GPGSA,A,1,,,,,,,,,,,,,0.00,0.00,0.00,1*1D
$GPGSV,3,1,10,10,0,0,53,18,0,0,49,23,0,0,50,25,0,0,0*4A
$GPGSV,3,2,10,27,0,0,51,32,0,0,53,1,0,0,32,2,0,0,32*7C
$GPGSV,3,3,10,3,0,0,0,4,0,0,0*7F
$GPTXT,2,1,4,TRK,FO=0 0,rssi=[5b49 0 0 0],GDOP=0.0,C=0,pps_d=0 0 0,e=0,refSv=0,CP=0,BG=0 0 0 0 0*44
$GPTXT,2,2,4,bd=5 5 0 0 5 0 msg=0 0 0 0 0 0 0,0 0 0 0 0 sk=116 0 0 0 0 105 0,0 0 0 0 0 0 0 0 0 0 0 rm=0 0 bdGlo=0 0 0 0 0 0 *7B
$GPRMC,000031.00,V,,,,,0.0,,060180,,,N*5E
$GPGGA,000031.00,,,,,0,0,0.00,0,M,0,M,,0*54
$GPGSA,A,1,,,,,,,,,,,,,0.00,0.00,0.00,1*1D
$GPGSV,3,1,10,10,0,0,53,18,0,0,50,23,0,0,51,25,0,0,0*43
$GPGSV,3,2,10,27,0,0,50,32,0,0,54,1,0,0,34,2,0,0,33*7D
$GPGSV,3,3,10,3,0,0,0,4,0,0,0*7F
$GPTXT,2,1,4,TRK,FO=0 0,rssi=[5d8b 0 0 0],GDOP=0.0,C=0,pps_d=0 0 0,e=0,refSv=0,CP=0,BG=0 0 0 0 0*15
$GPTXT,2,2,4,bd=5 5 0 0 5 0 msg=0 0 0 0 0 0 0,0 0 0 0 0 sk=121 0 0 0 0 110 0,0 0 0 0 0 0 0 0 0 0 0 rm=0 0 bdGlo=0 0 0 0 0 0 *7B
$GPRMC,181100.00,A,3723.719317,N,12156.604543,W,0.0,,241021,,,A*61
$GPGGA,181100.00,3723.719317,N,12156.604543,W,1,5,2.50,-21,M,0,M,,0*65
$GPGSA,A,3,10,18,23,27,32,,,,,,,,3.88,2.50,2.96,1*1B
$GPGSV,3,1,10,10,54,49,53,18,9,132,49,23,24,75,50,25,0,0,0*4B
$GPGSV,3,2,10,27,36,229,51,32,85,169,53,1,0,0,34,2,0,0,34*73
$GPGSV,3,3,10,3,0,0,0,4,0,0,0*7F
$GPTXT,2,1,4,FIX,FO=2366 0,rssi=[5d51 0 0 0],GDOP=4.56,C=84,pps_d=0 0 0,e=0,refSv=32,CP=1,BG=0 0 0 0 0*5B
$GPTXT,2,2,4,bd=5 5 5 0 5 0 msg=5 1 0 5 0 0 5,0 0 0 0 0 sk=126 0 0 0 0 110 0,0 0 0 0 0 0 0 0 0 0 0 rm=0 0 bdGlo=0 0 0 0 0 0 *7D
$GPRMC,181101.00,A,3723.719624,N,12156.604454,W,0.0,,241021,,,A*62
$GPGGA,181101.00,3723.719624,N,12156.604454,W,1,5,2.50,-26,M,0,M,,0*61
$GPGSA,A,3,10,18,23,27,32,,,,,,,,3.88,2.50,2.96,1*1B
$GPGSV,3,1,10,10,54,49,52,18,9,132,49,23,24,75,50,25,0,0,0*4A
$GPGSV,3,2,10,27,36,229,51,32,85,169,53,1,0,0,32,2,0,0,31*70
$GPGSV,3,3,10,3,0,0,0,4,0,0,0*7F
$GPTXT,2,1,4,FIX,FO=2389 2389,rssi=[5deb 0 0 0],GDOP=4.56,C=84,pps_d=-86428948 -68475866 0,e=0,refSv=32,CP=2,BG=0 0 0 0 0*6F
$GPTXT,2,2,4,bd=5 5 5 0 5 0 msg=5 1 0 5 0 0 5,0 0 0 0 0 sk=131 0 0 0 0 110 0,0 0 0 0 0 0 0 0 0 0 0 rm=0 0 bdGlo=0 0 0 0 0 0 *7B
$GPRMC,181102.00,A,3723.719143,N,12156.604047,W,0.0,,241021,,,A*61
$GPGGA,181102.00,3723.719143,N,12156.604047,W,1,5,2.50,-25,M,0,M,,0*61
$GPGSA,A,3,10,18,23,27,32,,,,,,,,3.88,2.50,2.96,1*1B
$GPGSV,3,1,10,10,54,49,52,18,9,132,49,23,24,75,50,25,0,0,0*4A
$GPGSV,3,2,10,27,36,229,50,32,85,169,52,1,0,0,32,2,0,0,32*73
$GPGSV,3,3,10,3,0,0,0,4,0,0,0*7F
$GPTXT,2,1,4,FIX,FO=2348 2385,rssi=[59df 0 0 0],GDOP=4.56,C=84,pps_d=-54052780 -68476003 0,e=0,refSv=32,CP=2,BG=0 0 0 0 0*32
$GPTXT,2,2,4,bd=5 5 5 0 5 0 msg=5 1 0 5 0 0 5,0 0 0 0 0 sk=135 0 0 0 0 111 0,0 0 0 0 0 0 0 0 0 0 0 rm=0 0 bdGlo=0 0 0 0 0 0 *7E
$GPRMC,181103.00,A,3723.718932,N,12156.603654,W,0.0,,241021,,,A*6C
$GPGGA,181103.00,3723.718932,N,12156.603654,W,1,5,2.50,-24,M,0,M,,0*6D
$GPGSA,A,3,10,18,23,27,32,,,,,,,,3.88,2.50,2.96,1*1B
$GPGSV,3,1,10,10,54,49,53,18,9,132,49,23,24,75,47,25,0,0,0*4D
$GPGSV,3,2,10,27,36,229,50,32,85,169,53,1,0,0,33,2,0,0,32*73
$GPGSV,3,3,10,3,0,0,0,4,0,0,0*7F
$GPTXT,2,1,4,FIX,FO=2376 2384,rssi=[5a44 0 0 0],GDOP=4.56,C=84,pps_d=-3 -68476158 0,e=0,refSv=32,CP=2,BG=0 0 0 0 0*51
$GPTXT,2,2,4,bd=5 5 5 0 5 0 msg=5 1 0 5 0 0 5,0 0 0 0 0 sk=139 0 0 0 0 112 0,0 0 0 0 0 0 0 0 0 0 0 rm=0 0 bdGlo=0 0 0 0 0 0 *71
$GPRMC,181104.00,A,3723.718934,N,12156.603464,W,0.0,,241021,,,A*6C
$GPGGA,181104.00,3723.718934,N,12156.603464,W,1,5,2.50,-24,M,0,M,,0*6D
$GPGSA,A,3,10,18,23,27,32,,,,,,,,3.88,2.50,2.96,1*1B
$GPGSV,3,1,10,10,54,49,52,18,9,132,49,23,24,75,47,25,0,0,0*4C
$GPGSV,3,2,10,27,36,229,49,32,85,169,53,1,0,0,33,2,0,0,32*7B
$GPGSV,3,3,10,3,0,0,0,4,0,0,0*7F
$GPTXT,2,1,4,FIX,FO=2376 2383,rssi=[5b50 0 0 0],GDOP=4.56,C=84,pps_d=-7 -68476316 0,e=0,refSv=32,CP=2,BG=0 0 0 0 0*5C
$GPTXT,2,2,4,bd=5 5 5 0 5 0 msg=5 1 0 5 0 0 5,0 0 0 0 0 sk=143 0 0 0 0 113 0,0 0 0 0 0 0 0 0 0 0 0 rm=0 0 bdGlo=0 0 0 0 0 0 *7D
$GPRMC,181105.00,A,3723.719186,N,12156.603619,W,0.0,,241021,,,A*65
$GPGGA,181105.00,3723.719186,N,12156.603619,W,1,5,2.50,-24,M,0,M,,0*64
$GPGSA,A,3,10,18,23,27,32,,,,,,,,3.88,2.50,2.96,1*1B
$GPGSV,3,1,10,10,54,49,52,18,9,132,50,23,24,75,50,25,0,0,0*42
$GPGSV,3,2,10,27,36,229,49,32,85,169,53,1,0,0,34,2,0,0,33*7D
$GPGSV,3,3,10,3,0,0,0,4,0,0,0*7F
$GPTXT,2,1,4,FIX,FO=2364 2381,rssi=[5e54 0 0 0],GDOP=4.56,C=84,pps_d=-9 -68476476 0,e=0,refSv=32,CP=2,BG=0 0 0 0 0*51
$GPTXT,2,2,4,bd=5 5 5 0 5 0 msg=5 1 0 5 0 0 5,0 0 0 0 0 sk=147 0 0 0 0 114 0,0 0 0 0 0 0 0 0 0 0 0 rm=0 1 bdGlo=0 0 0 0 0 0 *7F
$GPRMC,181106.00,A,3723.719550,N,12156.604076,W,0.0,,241021,,,A*61
$GPGGA,181106.00,3723.719550,N,12156.604076,W,1,5,2.50,-25,M,0,M,,0*61
$GPGSA,A,3,10,18,23,27,32,,,,,,,,3.88,2.50,2.96,1*1B
$GPGSV,3,1,9,10,54,49,51,18,9,132,49,23,24,75,51,27,36,229,50*7B
$GPGSV,3,2,9,32,85,169,53,1,0,0,32,2,0,0,33,3,0,0,0*74
$GPGSV,3,3,9,4,0,0,0*44
$GPTXT,2,1,4,FIX,FO=2366 2380,rssi=[5952 0 0 0],GDOP=4.56,C=84,pps_d=-8 -68476635 0,e=0,refSv=32,CP=2,BG=0 0 0 0 0*0C
$GPTXT,2,2,4,bd=5 5 5 6 5 0 msg=5 2 0 5 0 0 5,0 0 0 0 0 sk=150 0 0 0 0 115 0,0 0 0 0 0 0 0 0 0 0 0 rm=0 1 bdGlo=0 0 0 0 0 0 *7D
$GPRMC,181107.00,A,3723.719966,N,12156.604795,W,0.0,,241021,,,A*63
$GPGGA,181107.00,3723.719966,N,12156.604795,W,1,5,2.50,-26,M,0,M,,0*60
$GPGSA,A,3,10,18,23,27,32,,,,,,,,3.88,2.50,2.96,1*1B
$GPGSV,3,1,9,10,54,49,52,18,9,132,48,23,24,75,50,27,36,229,47*7E
$GPGSV,3,2,9,32,85,169,51,1,0,0,31,2,0,0,30,3,0,0,0*76
$GPGSV,3,3,9,4,0,0,0*44
$GPTXT,2,1,4,FIX,FO=2366 2378,rssi=[5654 0 0 0],GDOP=4.56,C=84,pps_d=-6 -68476792 0,e=0,refSv=32,CP=2,BG=0 0 0 0 0*00
$GPTXT,2,2,4,bd=5 5 5 6 5 0 msg=5 2 0 5 0 0 5,0 0 0 0 0 sk=153 0 0 0 0 116 0,0 0 0 0 0 0 0 0 0 0 0 rm=0 1 bdGlo=0 0 0 0 0 0 *7D
$GPRMC,181108.00,A,3723.720375,N,12156.605597,W,0.0,,241021,,,A*6F
$GPGGA,181108.00,3723.720375,N,12156.605597,W,1,5,2.50,-26,M,0,M,,0*6C
$GPGSA,A,3,10,18,23,27,32,,,,,,,,3.88,2.50,2.96,1*1B
$GPGSV,3,1,10,10,54,49,53,18,9,132,48,23,24,75,48,5,0,0,0*71
$GPGSV,3,2,10,27,36,229,48,32,85,169,52,1,0,0,32,2,0,0,31*79
$GPGSV,3,3,10,3,0,0,0,4,0,0,0*7F
$GPTXT,2,1,4,FIX,FO=2360 2377,rssi=[5b59 0 0 0],GDOP=4.56,C=84,pps_d=0 -68476942 0,e=0,refSv=32,CP=2,BG=0 0 0 0 0*78
$GPTXT,2,2,4,bd=5 5 5 6 5 0 msg=5 2 0 5 0 0 5,0 0 0 0 0 sk=156 0 0 0 0 118 0,0 0 0 0 0 0 0 0 0 0 0 rm=0 1 bdGlo=0 0 0 0 0 0 *76
$GPRMC,181109.00,A,3723.720697,N,12156.606309,W,0.0,,241021,,,A*65
$GPGGA,181109.00,3723.720697,N,12156.606309,W,1,5,2.50,-26,M,0,M,,0*66
$GPGSA,A,3,10,18,23,27,32,,,,,,,,3.88,2.50,2.96,1*1B
$GPGSV,3,1,10,10,54,49,52,18,9,132,48,23,24,75,48,5,0,0,0*70
$GPGSV,3,2,10,27,36,228,50,32,85,168,53,1,0,0,33,2,0,0,33*72
$GPGSV,3,3,10,3,0,0,0,4,0,0,0*7F
$GPTXT,2,1,4,FIX,FO=2362 2375,rssi=[60e6 0 0 0],GDOP=4.56,C=84,pps_d=4 -68477089 0,e=0,refSv=32,CP=2,BG=0 0 0 0 0*7D
$GPTXT,2,2,4,bd=5 5 5 6 5 0 msg=5 2 0 5 0 0 5,0 0 0 0 0 sk=159 0 0 0 0 120 0,0 0 0 0 0 0 0 0 0 0 0 rm=0 2 bdGlo=0 0 0 0 0 0 *71
$GPRMC,181110.00,A,3723.720821,N,12156.606906,W,0.0,,241021,,,A*6B
$GPGGA,181110.00,3723.720821,N,12156.606906,W,1,5,2.50,-26,M,0,M,,0*68
$GPGSA,A,3,10,18,23,27,32,,,,,,,,3.88,2.50,2.96,1*1B
$GPGSV,3,1,9,10,54,49,52,18,9,132,48,23,24,75,48,5,0,0,0*48
$GPGSV,3,2,9,27,36,228,50,32,85,168,53,1,0,0,33,2,0,0,33*4A
$GPGSV,3,3,9,3,0,0,0*43
$GPTXT,2,1,4,FIX,FO=2365 2374,rssi=[5eee 0 0 0],GDOP=4.57,C=84,pps_d=8 -68477231 0,e=0,refSv=32,CP=2,BG=0 0 0 0 0*72
$GPTXT,2,2,4,bd=5 5 5 6 5 0 msg=5 2 0 5 0 0 5,0 0 0 0 0 sk=161 0 0 0 0 122 0,0 0 0 0 0 0 0 0 0 0 0 rm=0 2 bdGlo=0 0 0 0 0 0 *78
$GPRMC,181111.00,A,3723.720851,N,12156.607351,W,0.0,,241021,,,A*64
$GPGGA,181111.00,3723.720851,N,12156.607351,W,1,5,2.50,-26,M,0,M,,0*67
$GPGSA,A,3,10,18,23,27,32,,,,,,,,3.88,2.50,2.96,1*1B
$GPGSV,3,1,10,10,54,49,52,18,9,132,48,23,24,75,48,5,0,0,0*70
$GPGSV,3,2,10,27,36,228,50,32,85,168,53,1,0,0,32,2,0,0,32*72
$GPGSV,3,3,10,3,0,0,0,6,0,0,0*7D
$GPTXT,2,1,4,FIX,FO=2370 2374,rssi=[5af8 0 0 0],GDOP=4.57,C=84,pps_d=3 -68477379 0,e=0,refSv=32,CP=2,BG=0 0 0 0 0*2A
$GPTXT,2,2,4,bd=5 5 5 6 5 0 msg=5 2 0 5 0 0 5,0 0 0 0 0 sk=164 0 0 0 0 124 0,0 0 0 0 0 0 0 0 0 0 0 rm=0 2 bdGlo=0 0 0 0 0 0 *7B
$GPRMC,181112.00,A,3723.720887,N,12156.607768,W,0.0,,241021,,,A*62
$GPGGA,181112.00,3723.720887,N,12156.607768,W,1,5,2.50,-25,M,0,M,,0*62
$GPGSA,A,3,10,18,23,27,32,,,,,,,,3.88,2.50,2.96,1*1B
$GPGSV,3,1,10,10,54,49,51,18,9,132,46,23,24,75,48,5,0,0,0*7D
$GPGSV,3,2,10,27,36,228,47,32,85,168,52,1,0,0,31,2,0,0,31*75
$GPGSV,3,3,10,3,0,0,0,6,0,0,0*7D
$GPTXT,2,1,4,FIX,FO=2382 2375,rssi=[58af 0 0 0],GDOP=4.57,C=84,pps_d=-3 -68477532 0,e=0,refSv=32,CP=2,BG=0 0 0 0 0*02
$GPTXT,2,2,4,bd=5 5 5 6 12 0 msg=5 3 1 6 0 0 6,0 0 0 0 0 sk=167 0 0 0 0 126 0,0 0 0 0 0 0 0 0 0 0 0 rm=0 2 bdGlo=0 0 0 0 0 0 *4C
$GPRMC,181113.00,A,3723.721021,N,12156.608157,W,0.0,,241021,,,A*63
$GPGGA,181113.00,3723.721021,N,12156.608157,W,1,5,2.50,-25,M,0,M,,0*63
$GPGSA,A,3,10,18,23,27,32,,,,,,,,3.88,2.50,2.96,1*1B
$GPGSV,3,1,10,10,54,49,51,18,9,132,47,23,24,75,47,5,0,0,0*73
$GPGSV,3,2,10,27,36,228,48,32,85,168,54,1,0,0,34,2,0,0,33*7B
$GPGSV,3,3,10,3,0,0,0,6,0,0,0*7D
$GPTXT,2,1,4,FIX,FO=2367 2374,rssi=[572a 0 0 0],GDOP=4.57,C=84,pps_d=0 -68477683 0,e=0,refSv=32,CP=2,BG=0 0 0 0 0*74
$GPTXT,2,2,4,bd=5 5 5 6 12 0 msg=5 3 1 6 0 0 6,0 0 0 0 0 sk=170 0 0 0 0 128 0,0 0 0 0 0 0 0 0 0 0 0 rm=0 2 bdGlo=0 0 0 0 0 0 *44
$GPRMC,181114.00,A,3723.721278,N,12156.608473,W,0.0,,241021,,,A*69
$GPGGA,181114.00,3723.721278,N,12156.608473,W,1,5,2.50,-25,M,0,M,,0*69
$GPGSA,A,3,10,18,23,27,32,,,,,,,,3.88,2.50,2.97,1*1A
$GPGSV,3,1,10,10,54,49,50,18,9,132,47,23,24,75,47,5,0,0,0*72
$GPGSV,3,2,10,27,36,228,47,32,85,168,53,1,0,0,33,2,0,0,33*74
$GPGSV,3,3,10,3,0,0,0,6,0,0,0*7D
$GPTXT,2,1,4,FIX,FO=2364 2373,rssi=[5a9d 0 0 0],GDOP=4.57,C=84,pps_d=-2 -68477836 0,e=0,refSv=32,CP=2,BG=0 0 0 0 0*07
$GPTXT,2,2,4,bd=5 5 5 6 12 0 msg=5 3 1 6 0 0 6,0 0 0 0 0 sk=173 0 0 0 0 130 0,0 0 0 0 0 0 0 0 0 0 0 rm=0 2 bdGlo=0 0 0 0 0 0 *4E
$GPRMC,181115.00,A,3723.721563,N,12156.608772,W,0.0,,241021,,,A*67
$GPGGA,181115.00,3723.721563,N,12156.608772,W,1,5,2.51,-25,M,0,M,,0*66
$GPGSA,A,3,10,18,23,27,32,,,,,,,,3.88,2.51,2.97,1*1B
$GPGSV,3,1,10,10,54,49,51,18,9,132,48,23,24,75,48,5,0,0,0*73
$GPGSV,3,2,10,27,36,228,49,32,85,168,54,1,0,0,33,2,0,0,33*7D
$GPGSV,3,3,10,3,0,0,0,6,0,0,0*7D
$GPTXT,2,1,4,FIX,FO=2362 2372,rssi=[5c81 0 0 0],GDOP=4.57,C=84,pps_d=0 -68477986 0,e=0,refSv=32,CP=2,BG=0 0 0 0 0*73
$GPTXT,2,2,4,bd=5 5 5 6 12 0 msg=5 3 1 6 0 0 6,0 0 0 0 0 sk=176 0 0 0 0 132 0,0 0 0 0 0 0 0 0 0 0 0 rm=0 2 bdGlo=0 0 0 0 0 0 *49
$GPRMC,181116.00,A,3723.721849,N,12156.609156,W,0.0,,241021,,,A*60
$GPGGA,181116.00,3723.721849,N,12156.609156,W,1,5,2.51,-26,M,0,M,,0*62
$GPGSA,A,3,10,18,23,27,32,,,,,,,,3.88,2.51,2.97,1*1B
$GPGSV,3,1,10,10,54,49,52,18,9,132,48,23,24,75,47,5,0,0,0*7F
$GPGSV,3,2,10,27,36,228,49,32,85,168,54,1,0,0,34,2,0,0,33*7A
$GPGSV,3,3,10,3,0,0,0,6,0,0,0*7D
$GPTXT,2,1,4,FIX,FO=2353 2370,rssi=[5c81 0 0 0],GDOP=4.57,C=84,pps_d=-3 -68478140 0,e=0,refSv=32,CP=2,BG=0 0 0 0 0*50
$GPTXT,2,2,4,bd=5 5 5 6 12 0 msg=5 3 1 6 0 0 6,0 0 0 0 0 sk=179 0 0 0 0 134 0,0 0 0 0 0 0 0 0 0 0 0 rm=0 2 bdGlo=0 0 0 0 0 0 *40
$GPRMC,181117.00,A,3723.721999,N,12156.609480,W,0.0,,241021,,,A*63
$GPGGA,181117.00,3723.721999,N,12156.609480,W,1,5,2.51,-26,M,0,M,,0*61
$GPGSA,A,3,10,18,23,27,32,,,,,,,,3.89,2.51,2.97,1*1A
$GPGSV,3,1,10,10,54,49,51,18,9,132,48,23,24,75,48,5,0,0,0*73
$GPGSV,3,2,10,27,36,228,49,32,85,168,53,1,0,0,33,2,0,0,33*7A
$GPGSV,3,3,10,3,0,0,0,6,0,0,0*7D
$GPTXT,2,1,4,FIX,FO=2364 2369,rssi=[6047 0 0 0],GDOP=4.57,C=84,pps_d=4 -68478286 0,e=0,refSv=32,CP=2,BG=0 0 0 0 0*25
$GPTXT,2,2,4,bd=5 5 5 6 12 0 msg=5 3 1 6 0 0 6,0 0 0 0 0 sk=182 0 0 0 0 136 0,0 0 0 0 0 0 0 0 0 0 0 rm=0 2 bdGlo=0 0 0 0 0 0 *46
$GPRMC,181118.00,A,3723.721978,N,12156.609778,W,0.0,,241021,,,A*67
$GPGGA,181118.00,3723.721978,N,12156.609778,W,1,5,2.51,-26,M,0,M,,0*65
$GPGSA,A,3,10,18,23,27,32,,,,,,,,3.89,2.51,2.97,1*1A
$GPGSV,3,1,10,10,54,49,52,18,9,132,47,23,24,75,48,5,0,0,0*7F
$GPGSV,3,2,10,27,36,228,49,32,85,168,54,1,0,0,34,2,0,0,34*7D
$GPGSV,3,3,10,3,0,0,0,6,0,0,0*7D
$GPTXT,2,1,4,FIX,FO=2391 2371,rssi=[5e24 0 0 0],GDOP=4.57,C=84,pps_d=4 -68478432 0,e=0,refSv=32,CP=2,BG=0 0 0 0 0*7C
$GPTXT,2,2,4,bd=12 5 5 6 12 0 msg=5 3 1 6 0 0 6,0 0 0 0 0 sk=185 0 0 0 0 138 0,0 0 0 0 0 0 0 0 0 0 0 rm=0 2 bdGlo=0 0 0 0 0 0 *79
$GPRMC,181119.00,A,3723.721821,N,12156.610036,W,0.0,,241021,,,A*6E
$GPGGA,181119.00,3723.721821,N,12156.610036,W,1,5,2.51,-26,M,0,M,,0*6C
$GPGSA,A,3,10,18,23,27,32,,,,,,,,3.89,2.51,2.97,1*1A
$GPGSV,3,1,10,10,54,49,51,18,9,132,47,23,24,75,47,5,0,0,0*73
$GPGSV,3,2,10,27,36,228,49,32,85,168,54,1,0,0,34,2,0,0,34*7D
$GPGSV,3,3,10,3,0,0,0,6,0,0,0*7D
$GPTXT,2,1,4,FIX,FO=2363 2371,rssi=[5e91 0 0 0],GDOP=4.57,C=84,pps_d=2 -68478581 0,e=0,refSv=32,CP=2,BG=0 0 0 0 0*70
$GPTXT,2,2,4,bd=12 5 5 6 12 0 msg=5 3 1 6 0 0 6,0 0 0 0 0 sk=188 0 0 0 0 140 0,0 0 0 0 0 0 0 0 0 0 0 rm=0 2 bdGlo=0 0 0 0 0 0 *7B
$GPRMC,181120.00,A,3723.721527,N,12156.610198,W,0.0,,241021,,,A*6A
$GPGGA,181120.00,3723.721527,N,12156.610198,W,1,5,2.51,-25,M,0,M,,0*6B
$GPGSA,A,3,10,18,23,27,32,,,,,,,,3.89,2.51,2.97,1*1A
$GPGSV,3,1,10,10,54,49,52,18,9,132,48,23,24,75,48,5,0,0,0*70
$GPGSV,3,2,10,27,36,228,49,32,85,168,53,1,0,0,33,2,0,0,32*7B
$GPGSV,3,3,10,3,0,0,0,6,0,0,0*7D
$GPTXT,2,1,4,FIX,FO=2370 2371,rssi=[5da5 0 0 0],GDOP=4.57,C=84,pps_d=2 -68478730 0,e=0,refSv=32,CP=2,BG=0 0 0 0 0*27
$GPTXT,2,2,4,bd=12 5 5 6 12 0 msg=5 3 1 6 0 0 6,0 0 0 0 0 sk=191 0 0 0 0 142 0,0 0 0 0 0 0 0 0 0 0 0 rm=0 2 bdGlo=0 0 0 0 0 0 *71
$GPRMC,181121.00,A,3723.721122,N,12156.610214,W,0.0,,241021,,,A*6D
$GPGGA,181121.00,3723.721122,N,12156.610214,W,1,5,2.51,-25,M,0,M,,0*6C
$GPGSA,A,3,10,18,23,27,32,,,,,,,,3.89,2.51,2.97,1*1A
$GPGSV,3,1,10,10,54,49,51,18,9,132,48,23,24,75,48,5,0,0,0*73
$GPGSV,3,2,10,27,36,228,48,32,85,168,53,1,0,0,33,2,0,0,32*7A
$GPGSV,3,3,10,3,0,0,0,6,0,0,0*7D
$GPTXT,2,1,4,FIX,FO=2351 2369,rssi=[59ab 0 0 0],GDOP=4.57,C=84,pps_d=3 -68478877 0,e=0,refSv=32,CP=2,BG=0 0 0 0 0*2A
$GPTXT,2,2,4,bd=12 5 5 6 12 0 msg=5 3 1 6 0 0 6,0 0 0 0 0 sk=194 0 0 0 0 144 0,0 0 0 0 0 0 0 0 0 0 0 rm=0 2 bdGlo=0 0 0 0 0 0 *72
$GPRMC,181122.00,A,3723.720690,N,12156.610038,W,0.0,,241021,,,A*6D
$GPGGA,181122.00,3723.720690,N,12156.610038,W,1,5,2.51,-24,M,0,M,,0*6D
$GPGSA,A,3,10,18,23,27,32,,,,,,,,3.89,2.51,2.97,1*1A
$GPGSV,3,1,10,10,54,49,52,18,9,132,49,23,24,75,47,5,0,0,0*7E
$GPGSV,3,2,10,27,36,228,47,32,85,168,53,1,0,0,32,2,0,0,31*77
$GPGSV,3,3,10,3,0,0,0,6,0,0,0*7D
$GPTXT,2,1,4,FIX,FO=2350 2367,rssi=[5e7f 0 0 0],GDOP=4.57,C=84,pps_d=6 -68479022 0,e=0,refSv=32,CP=2,BG=0 0 0 0 0*27
$GPTXT,2,2,4,bd=12 5 5 6 12 0 msg=5 3 1 6 0 0 6,0 0 0 0 0 sk=197 0 0 0 0 146 0,0 0 0 0 0 0 0 0 0 0 0 rm=0 2 bdGlo=0 0 0 0 0 0 *73
$GPRMC,181123.00,A,3723.720219,N,12156.609669,W,0.0,,241021,,,A*63
$GPGGA,181123.00,3723.720219,N,12156.609669,W,1,5,2.51,-23,M,0,M,,0*64
$GPGSA,A,3,10,18,23,27,32,,,,,,,,3.89,2.51,2.97,1*1A
$GPGSV,3,1,10,10,54,49,52,18,9,132,49,23,24,75,46,5,0,0,0*7F
$GPGSV,3,2,10,27,36,228,48,32,85,168,51,1,0,0,31,2,0,0,30*78
$GPGSV,3,3,10,3,0,0,0,6,0,0,0*7D
$GPTXT,2,1,4,FIX,FO=2376 2368,rssi=[5d8b 0 0 0],GDOP=4.57,C=84,pps_d=5 -68479167 0,e=0,refSv=32,CP=2,BG=0 0 0 0 0*25
$GPTXT,2,2,4,bd=12 5 5 6 12 0 msg=5 3 1 6 0 0 6,0 0 0 0 0 sk=200 0 0 0 0 148 0,0 0 0 0 0 0 0 0 0 0 0 rm=0 2 bdGlo=0 0 0 0 0 0 *70
$GPRMC,181124.00,A,3723.719708,N,12156.609293,W,0.0,,241021,,,A*6A
$GPGGA,181124.00,3723.719708,N,12156.609293,W,1,5,2.51,-23,M,0,M,,0*6D
$GPGSA,A,3,10,18,23,27,32,,,,,,,,3.89,2.51,2.97,1*1A
$GPGSV,3,1,10,10,54,49,52,18,9,132,48,23,24,75,49,5,0,0,0*71
$GPGSV,3,2,10,27,36,228,48,32,85,168,53,1,0,0,33,2,0,0,32*7A
$GPGSV,3,3,10,3,0,0,0,6,0,0,0*7D
$GPTXT,2,1,4,FIX,FO=2353 2366,rssi=[5e34 0 0 0],GDOP=4.57,C=84,pps_d=3 -68479314 0,e=0,refSv=32,CP=2,BG=0 0 0 0 0*70
$GPTXT,2,2,4,bd=12 12 5 6 12 0 msg=5 3 1 6 0 0 6,0 0 0 0 0 sk=203 0 0 0 0 150 0,0 0 0 0 0 0 0 0 0 0 0 rm=0 2 bdGlo=0 0 0 0 0 0 *4C
$GPRMC,181125.00,A,3723.719119,N,12156.609049,W,0.0,,241021,,,A*68
$GPGGA,181125.00,3723.719119,N,12156.609049,W,1,5,2.51,-22,M,0,M,,0*6E
$GPGSA,A,3,10,18,23,27,32,,,,,,,,3.89,2.51,2.97,1*1A
$GPGSV,3,1,10,10,54,49,52,18,9,132,47,23,24,75,48,5,0,0,0*7F
$GPGSV,3,2,10,27,36,228,46,32,85,168,52,1,0,0,31,2,0,0,31*74
$GPGSV,3,3,10,3,0,0,0,6,0,0,0*7D
$GPTXT,2,1,4,FIX,FO=2355 2365,rssi=[5cae 0 0 0],GDOP=4.57,C=84,pps_d=2 -68479462 0,e=0,refSv=32,CP=2,BG=0 0 0 0 0*77
$GPTXT,2,2,4,bd=12 12 5 6 12 0 msg=5 3 1 6 0 0 6,0 0 0 0 0 sk=206 0 0 0 0 152 0,0 0 0 0 0 0 0 0 0 0 0 rm=0 2 bdGlo=0 0 0 0 0 0 *4B
$GPRMC,181126.00,A,3723.718469,N,12156.608858,W,0.0,,241021,,,A*61
$GPGGA,181126.00,3723.718469,N,12156.608858,W,1,5,2.51,-21,M,0,M,,0*64
$GPGSA,A,3,10,18,23,27,32,,,,,,,,3.89,2.51,2.97,1*1A
$GPGSV,3,1,10,10,54,49,52,18,9,132,48,23,24,75,48,5,0,0,0*70
$GPGSV,3,2,10,27,36,228,51,32,85,168,53,1,0,0,32,2,0,0,32*73
$GPGSV,3,3,10,3,0,0,0,6,0,0,0*7D
$GPTXT,2,1,4,FIX,FO=2362 2365,rssi=[5db2 0 0 0],GDOP=4.57,C=84,pps_d=3 -68479608 0,e=0,refSv=32,CP=2,BG=0 0 0 0 0*2F
$GPTXT,2,2,4,bd=12 12 5 6 12 0 msg=5 3 1 6 0 0 6,0 0 0 0 0 sk=209 0 0 0 0 154 0,0 0 0 0 0 0 0 0 0 0 0 rm=0 2 bdGlo=0 0 0 0 0 0 *42
$GPRMC,181127.00,A,3723.717779,N,12156.608759,W,0.0,,241021,,,A*63
$GPGGA,181127.00,3723.717779,N,12156.608759,W,1,5,2.51,-20,M,0,M,,0*67
$GPGSA,A,3,10,18,23,27,32,,,,,,,,3.89,2.51,2.97,1*1A
$GPGSV,3,1,10,10,54,49,53,18,9,132,48,23,24,75,47,5,0,0,0*7E
$GPGSV,3,2,10,27,36,228,49,32,86,167,53,1,0,0,33,2,0,0,33*76
$GPGSV,3,3,10,3,0,0,0,6,0,0,0*7D
$GPTXT,2,1,4,FIX,FO=2365 2365,rssi=[5d2d 0 0 0],GDOP=4.58,C=84,pps_d=0 -68479758 0,e=0,refSv=32,CP=2,BG=0 0 0 0 0*26
$GPTXT,2,2,4,bd=12 12 5 6 12 0 msg=5 3 1 6 0 0 6,0 0 0 0 0 sk=212 0 0 0 0 156 0,0 0 0 0 0 0 0 0 0 0 0 rm=0 2 bdGlo=0 0 0 0 0 0 *4A
$GPRMC,181128.00,A,3723.717126,N,12156.608708,W,0.0,,241021,,,A*64
$GPGGA,181128.00,3723.717126,N,12156.608708,W,1,5,2.51,-19,M,0,M,,0*6A
$GPGSA,A,3,10,18,23,27,32,,,,,,,,3.89,2.51,2.97,1*1A
$GPGSV,3,1,10,10,54,49,53,18,9,132,48,23,24,75,47,5,0,0,0*7E
$GPGSV,3,2,10,27,36,228,49,32,86,167,54,1,0,0,34,2,0,0,33*76
$GPGSV,3,3,10,3,0,0,0,6,0,0,0*7D
$GPTXT,2,1,4,FIX,FO=2354 2364,rssi=[5bb2 0 0 0],GDOP=4.58,C=84,pps_d=3 -68479905 0,e=0,refSv=32,CP=2,BG=0 0 0 0 0*20
$GPTXT,2,2,4,bd=12 12 5 6 12 0 msg=5 3 1 6 0 0 6,0 0 0 0 0 sk=215 0 0 0 0 158 0,0 0 0 0 0 0 0 0 0 0 0 rm=0 2 bdGlo=0 0 0 0 0 0 *43
$GPRMC,181129.00,A,3723.716585,N,12156.608716,W,0.0,,241021,,,A*66
$GPGGA,181129.00,3723.716585,N,12156.608716,W,1,5,2.51,-18,M,0,M,,0*69
$GPGSA,A,3,10,18,23,27,32,,,,,,,,3.89,2.51,2.97,1*1A
$GPGSV,3,1,10,10,54,49,52,18,9,132,47,23,24,75,48,5,0,0,0*7F
$GPGSV,3,2,10,27,36,228,47,32,86,167,53,1,0,0,33,2,0,0,33*78
$GPGSV,3,3,10,3,0,0,0,6,0,0,0*7D
$GPTXT,2,1,4,FIX,FO=2351 2362,rssi=[5d05 0 0 0],GDOP=4.58,C=84,pps_d=0 -68480055 0,e=0,refSv=32,CP=2,BG=0 0 0 0 0*79
$GPTXT,2,2,4,bd=12 12 5 6 12 0 msg=5 3 1 6 0 0 6,0 0 0 0 0 sk=218 0 0 0 0 160 0,0 0 0 0 0 0 0 0 0 0 0 rm=0 2 bdGlo=0 0 0 0 0 0 *45
$GPRMC,181130.00,A,3723.716189,N,12156.608746,W,0.0,,241021,,,A*63
$GPGGA,181130.00,3723.716189,N,12156.608746,W,1,5,2.51,-18,M,0,M,,0*6C
$GPGSA,A,3,10,18,23,27,32,,,,,,,,3.89,2.51,2.97,1*1A
$GPGSV,3,1,10,10,54,49,53,18,9,132,49,23,24,75,49,5,0,0,0*71
$GPGSV,3,2,10,27,36,228,49,32,86,167,54,1,86,167,33,2,86,167,33*71
$GPGSV,3,3,10,3,0,0,0,6,0,0,0*7D
$GPTXT,2,1,4,FIX,FO=2376 2364,rssi=[57a4 0 0 0],GDOP=4.58,C=84,pps_d=0 -68480205 0,e=0,refSv=32,CP=2,BG=0 0 0 0 0*7E
$GPTXT,2,2,4,bd=12 12 12 6 12 0 msg=7 3 1 8 0 0 8,0 0 0 0 0 sk=221 0 0 2 0 160 0,0 0 0 0 0 0 0 0 0 0 0 rm=0 2 bdGlo=0 0 0 0 0 0 *79
$GPRMC,181131.00,A,3723.715957,N,12156.608757,W,0.0,,241021,,,A*6A
$GPGGA,181131.00,3723.715957,N,12156.608757,W,1,5,2.51,-17,M,0,M,,0*6A
$GPGSA,A,3,10,18,23,27,32,,,,,,,,3.89,2.51,2.97,1*1A
$GPGSV,3,1,10,10,54,49,51,18,9,132,51,23,24,75,51,5,0,0,0*73
$GPGSV,3,2,10,27,36,228,50,32,86,167,54,1,86,167,34,2,86,167,33*7E
$GPGSV,3,3,10,3,0,0,0,6,0,0,0*7D
$GPTXT,2,1,4,FIX,FO=2350 2362,rssi=[5ca7 0 0 0],GDOP=4.58,C=84,pps_d=-3 -68480358 0,e=0,refSv=1,CP=2,BG=0 0 0 0 0*3C
$GPTXT,2,2,4,bd=12 12 12 6 12 0 msg=7 3 1 8 0 0 8,0 0 0 0 0 sk=224 0 0 2 0 160 0,0 0 2 0 0 0 0 0 0 0 0 rm=0 2 bdGlo=0 0 0 0 0 0 *7E
$GPRMC,181132.00,A,3723.715925,N,12156.608801,W,0.0,,241021,,,A*60
$GPGGA,181132.00,3723.715925,N,12156.608801,W,1,5,2.51,-17,M,0,M,,0*60
$GPGSA,A,3,10,18,23,27,32,,,,,,,,3.89,2.51,2.97,1*1A
$GPGSV,3,1,10,10,54,49,52,18,9,132,50,23,24,75,47,5,0,0,0*76
$GPGSV,3,2,10,27,36,228,51,32,86,167,54,1,86,167,33,2,86,167,32*79
$GPGSV,3,3,10,3,0,0,0,6,0,0,0*7D
$GPTXT,2,1,4,FIX,FO=2382 2364,rssi=[5725 0 0 0],GDOP=4.58,C=84,pps_d=-4 -68480512 0,e=0,refSv=1,CP=2,BG=0 0 0 0 0*3F
$GPTXT,2,2,4,bd=12 12 12 6 12 0 msg=7 3 1 8 0 0 8,0 0 0 0 0 sk=227 0 0 2 0 160 0,0 0 4 0 0 0 0 0 0 0 0 rm=1 2 bdGlo=0 0 0 0 0 0 *7A
$GPRMC,181133.00,A,3723.716040,N,12156.608971,W,0.0,,241021,,,A*6E
$GPGGA,181133.00,3723.716040,N,12156.608971,W,1,5,2.52,-17,M,0,M,,0*6D
$GPGSA,A,3,10,18,23,27,32,,,,,,,,3.89,2.52,2.97,1*19
$GPGSV,3,1,9,10,54,49,53,18,9,132,50,23,24,75,46,5,0,0,0*4E
$GPGSV,3,2,9,27,36,228,52,32,86,167,54,1,86,167,35,2,86,167,34*42
$GPGSV,3,3,9,6,0,0,0*46
$GPTXT,2,1,4,FIX,FO=2358 2364,rssi=[5ea4 0 0 0],GDOP=4.58,C=84,pps_d=-4 -68480666 0,e=0,refSv=1,CP=2,BG=0 0 0 0 0*38
$GPTXT,2,2,4,bd=12 12 12 6 12 0 msg=7 3 1 8 0 0 8,0 0 0 0 0 sk=229 0 0 2 0 160 0,0 0 6 0 0 0 0 0 0 0 0 rm=1 2 bdGlo=0 0 0 0 0 0 *76
$GPRMC,181134.00,A,3723.716239,N,12156.609162,W,0.0,,241021,,,A*6E
$GPGGA,181134.00,3723.716239,N,12156.609162,W,1,5,2.52,-17,M,0,M,,0*6D
$GPGSA,A,3,10,18,23,27,32,,,,,,,,3.89,2.52,2.97,1*19
$GPGSV,3,1,10,10,54,49,53,18,9,132,50,23,24,75,49,5,0,0,0*79
$GPGSV,3,2,10,27,36,228,52,32,86,167,54,1,86,167,34,2,86,167,34*7B
$GPGSV,3,3,10,7,0,0,0,6,0,0,0*79
$GPTXT,2,1,4,FIX,FO=2374 2365,rssi=[5c52 0 0 0],GDOP=4.58,C=84,pps_d=-2 -68480817 0,e=0,refSv=1,CP=2,BG=0 0 0 0 0*6D
$GPTXT,2,2,4,bd=12 12 12 6 12 0 msg=7 3 1 8 0 0 8,0 0 0 0 0 sk=232 0 0 2 0 160 0,0 0 8 0 0 0 0 0 0 0 0 rm=1 2 bdGlo=0 0 0 0 0 0 *72
$GPRMC,181135.00,A,3723.716577,N,12156.609263,W,0.0,,241021,,,A*60
$GPGGA,181135.00,3723.716577,N,12156.609263,W,1,5,2.52,-18,M,0,M,,0*6C
$GPGSA,A,3,10,18,23,27,32,,,,,,,,3.90,2.52,2.97,1*11
$GPGSV,3,1,10,10,54,49,52,18,9,132,50,23,24,75,48,5,0,0,0*79
$GPGSV,3,2,10,27,36,228,50,32,86,167,54,1,86,167,33,2,86,167,33*79
$GPGSV,3,3,10,7,0,0,0,6,0,0,0*79
$GPTXT,2,1,4,FIX,FO=2364 2365,rssi=[5c60 0 0 0],GDOP=4.58,C=84,pps_d=-7 -68480973 0,e=0,refSv=1,CP=2,BG=0 0 0 0 0*6B
$GPTXT,2,2,4,bd=12 12 12 6 12 0 msg=7 3 1 8 0 0 8,0 0 0 0 0 sk=235 0 0 2 0 160 0,0 0 10 0 0 0 0 0 0 0 0 rm=1 2 bdGlo=0 0 0 0 0 0 *4C
$GPRMC,181136.00,A,3723.716977,N,12156.609221,W,0.0,,241021,,,A*69
$GPGGA,181136.00,3723.716977,N,12156.609221,W,1,5,2.52,-18,M,0,M,,0*65
$GPGSA,A,3,10,18,23,27,32,,,,,,,,3.90,2.52,2.97,1*11
$GPGSV,3,1,10,10,54,49,51,18,9,132,52,23,24,75,47,5,0,0,0*77
$GPGSV,3,2,10,27,36,228,46,32,86,167,53,1,86,167,33,2,86,167,32*78
$GPGSV,3,3,10,7,0,0,31,6,0,0,0*4B
$GPTXT,2,1,4,FIX,FO=2352 2363,rssi=[5d51 0 0 0],GDOP=4.58,C=84,pps_d=-7 -68481130 0,e=0,refSv=1,CP=2,BG=0 0 0 0 0*63
$GPTXT,2,2,4,bd=12 12 12 13 12 0 msg=7 4 2 9 0 0 9,0 0 0 0 0 sk=238 0 0 2 0 160 0,0 0 12 0 0 0 0 0 0 0 0 rm=1 2 bdGlo=0 0 0 0 0 0 *73
$GPRMC,181137.00,A,3723.717400,N,12156.608967,W,0.0,,241021,,,A*6C
$GPGGA,181137.00,3723.717400,N,12156.608967,W,1,5,2.52,-19,M,0,M,,0*61
$GPGSA,A,3,10,18,23,27,32,,,,,,,,3.90,2.52,2.97,1*11
$GPGSV,3,1,10,10,54,49,52,18,9,132,51,23,24,75,48,5,0,0,0*78
$GPGSV,3,2,10,27,36,228,48,32,86,167,53,1,86,167,33,2,86,167,33*77
$GPGSV,3,3,10,7,0,0,32,6,0,0,0*48
$GPTXT,2,1,4,FIX,FO=2368 2364,rssi=[5bed 0 0 0],GDOP=4.58,C=84,pps_d=-4 -68481284 0,e=0,refSv=1,CP=2,BG=0 0 0 0 0*61
$GPTXT,2,2,4,bd=12 12 12 13 12 0 msg=7 4 2 9 0 0 9,0 0 0 0 0 sk=241 0 0 2 0 160 0,0 0 14 0 0 0 0 0 0 0 0 rm=1 2 bdGlo=0 0 0 0 0 0 *7B
$GPRMC,181138.00,A,3723.717746,N,12156.608581,W,0.0,,241021,,,A*66
$GPGGA,181138.00,3723.717746,N,12156.608581,W,1,5,2.52,-19,M,0,M,,0*6B
$GPGSA,A,3,10,18,23,27,32,,,,,,,,3.90,2.52,2.97,1*11
$GPGSV,3,1,10,10,54,49,53,18,9,132,51,23,24,75,45,5,0,0,0*74
$GPGSV,3,2,10,27,36,228,49,32,86,167,53,1,86,167,34,2,86,167,32*70
$GPGSV,3,3,10,7,0,0,32,6,0,0,0*48
$GPTXT,2,1,4,FIX,FO=2364 2364,rssi=[5d06 0 0 0],GDOP=4.58,C=84,pps_d=-2 -68481436 0,e=0,refSv=1,CP=2,BG=0 0 0 0 0*65
$GPTXT,2,2,4,bd=12 12 12 13 12 0 msg=7 4 2 9 0 0 9,0 0 0 0 0 sk=244 0 0 2 0 160 0,0 0 16 0 0 0 0 0 0 0 0 rm=1 2 bdGlo=0 0 0 0 0 0 *7C
$GPRMC,181139.00,A,3723.718031,N,12156.608256,W,0.0,,241021,,,A*62
$GPGGA,181139.00,3723.718031,N,12156.608256,W,1,5,2.52,-20,M,0,M,,0*65
$GPGSA,A,3,10,18,23,27,32,,,,,,,,3.90,2.52,2.97,1*11
$GPGSV,3,1,10,10,54,49,51,18,9,132,50,23,24,75,43,5,0,0,0*71
$GPGSV,3,2,10,27,36,228,49,32,86,167,54,1,86,167,34,2,86,167,33*76
$GPGSV,3,3,10,7,0,0,34,6,0,0,0*4E
$GPTXT,2,1,4,FIX,FO=2370 2365,rssi=[5ab8 0 0 0],GDOP=4.58,C=84,pps_d=-5 -68481591 0,e=0,refSv=1,CP=2,BG=0 0 0 0 0*33
$GPTXT,2,2,4,bd=12 12 12 13 12 0 msg=7 4 2 9 0 0 9,0 0 0 0 0 sk=247 0 0 2 0 160 0,0 0 18 0 0 0 0 0 0 0 0 rm=1 2 bdGlo=0 0 0 0 0 0 *71
$GPRMC,181140.00,A,3723.718365,N,12156.608031,W,0.0,,241021,,,A*6D
$GPGGA,181140.00,3723.718365,N,12156.608031,W,1,5,2.52,-22,M,0,M,,0*68
$GPGSA,A,3,10,18,23,27,32,,,,,,,,3.90,2.52,2.97,1*11
$GPGSV,3,1,10,10,54,49,52,18,9,132,50,23,24,75,46,5,0,0,0*77
$GPGSV,3,2,10,27,36,228,48,32,86,167,54,1,86,167,35,2,86,167,35*70
$GPGSV,3,3,10,7,0,0,34,6,0,0,0*4E
$GPTXT,2,1,4,FIX,FO=2368 2365,rssi=[5e46 0 0 0],GDOP=4.58,C=84,pps_d=-8 -68481749 0,e=0,refSv=1,CP=2,BG=0 0 0 0 0*6C
$GPTXT,2,2,4,bd=12 12 12 13 12 0 msg=7 4 2 9 0 0 9,0 0 0 0 0 sk=250 0 0 2 0 160 0,0 0 20 0 0 0 0 0 0 0 0 rm=1 2 bdGlo=0 0 0 0 0 0 *7C
$GPRMC,181141.00,A,3723.718633,N,12156.608036,W,0.0,,241021,,,A*6D
$GPGGA,181141.00,3723.718633,N,12156.608036,W,1,5,2.52,-23,M,0,M,,0*69
$GPGSA,A,3,10,18,23,27,32,,,,,,,,3.90,2.52,2.97,1*11
$GPGSV,3,1,10,10,54,49,52,18,9,132,50,23,24,75,47,5,0,0,0*76
$GPGSV,3,2,10,27,36,228,48,32,86,167,54,1,86,167,34,2,86,167,33*77
$GPGSV,3,3,10,7,0,0,33,6,0,0,0*49
$GPTXT,2,1,4,FIX,FO=2355 2364,rssi=[5bb3 0 0 0],GDOP=4.58,C=84,pps_d=-5 -68481904 0,e=0,refSv=1,CP=2,BG=0 0 0 0 0*3D
$GPTXT,2,2,4,bd=12 12 12 13 12 0 msg=7 4 2 9 0 0 9,0 0 0 0 0 sk=253 0 0 2 0 160 0,0 0 22 0 0 0 0 0 0 0 0 rm=1 2 bdGlo=0 0 0 0 0 0 *7D
$GPRMC,181142.00,A,3723.718832,N,12156.608247,W,0.0,,241021,,,A*65
$GPGGA,181142.00,3723.718832,N,12156.608247,W,1,5,2.52,-24,M,0,M,,0*66
$GPGSA,A,3,10,18,23,27,32,,,,,,,,3.90,2.52,2.97,1*11
$GPGSV,3,1,10,10,54,49,53,18,9,132,49,23,24,75,45,5,0,0,0*7D
$GPGSV,3,2,10,27,36,228,48,32,86,167,54,1,86,167,33,2,86,167,33*70
$GPGSV,3,3,10,7,0,0,33,6,0,0,0*49
$GPTXT,2,1,4,FIX,FO=2369 2364,rssi=[5a63 0 0 0],GDOP=4.58,C=84,pps_d=-9 -68482063 0,e=0,refSv=1,CP=2,BG=0 0 0 0 0*62
$GPTXT,2,2,4,bd=12 12 12 13 19 0 msg=7 5 2 9 0 0 9,0 0 0 0 0 sk=256 0 0 2 0 160 0,0 0 24 0 0 0 0 0 0 0 0 rm=1 2 bdGlo=0 0 0 0 0 0 *74
$GPRMC,181143.00,A,3723.719039,N,12156.608610,W,0.0,,241021,,,A*60
$GPGGA,181143.00,3723.719039,N,12156.608610,W,1,5,2.52,-25,M,0,M,,0*62
$GPGSA,A,3,10,18,23,27,32,,,,,,,,3.90,2.52,2.97,1*11
$GPGSV,3,1,10,10,54,49,53,18,9,132,50,23,24,75,45,5,0,0,0*75
$GPGSV,3,2,10,27,36,228,49,32,86,167,54,1,86,167,34,2,86,167,33*76
$GPGSV,3,3,10,7,0,0,34,6,0,0,0*4E
$GPTXT,2,1,4,FIX,FO=2365 2364,rssi=[5c63 0 0 0],GDOP=4.59,C=84,pps_d=-5 -68482218 0,e=0,refSv=1,CP=2,BG=0 0 0 0 0*6F
$GPTXT,2,2,4,bd=12 12 12 13 19 0 msg=7 5 2 9 0 0 9,0 0 0 0 0 sk=259 0 0 2 0 160 0,0 0 26 0 0 0 0 0 0 0 0 rm=1 2 bdGlo=0 0 0 0 0 0 *79
$GPRMC,181144.00,A,3723.719188,N,12156.609086,W,0.0,,241021,,,A*64
$GPGGA,181144.00,3723.719188,N,12156.609086,W,1,5,2.52,-26,M,0,M,,0*65
$GPGSA,A,3,10,18,23,27,32,,,,,,,,3.90,2.52,2.97,1*11
$GPGSV,3,1,10,10,54,49,52,18,9,132,50,23,24,75,47,5,0,0,0*76
$GPGSV,3,2,10,27,36,228,49,32,86,166,53,1,86,166,33,2,86,166,32*76
$GPGSV,3,3,10,7,0,0,33,6,0,0,0*49
$GPTXT,2,1,4,FIX,FO=2375 2365,rssi=[590f 0 0 0],GDOP=4.59,C=84,pps_d=-5 -68482373 0,e=0,refSv=1,CP=2,BG=0 0 0 0 0*6A
$GPTXT,2,2,4,bd=12 12 12 13 19 0 msg=7 5 2 9 0 0 9,0 0 0 0 0 sk=261 0 0 2 0 161 0,0 0 28 0 0 0 0 0 0 0 0 rm=1 2 bdGlo=0 0 0 0 0 0 *7D
$GPRMC,181145.00,A,3723.719192,N,12156.609647,W,0.0,,241021,,,A*65
$GPGGA,181145.00,3723.719192,N,12156.609647,W,1,5,2.52,-27,M,0,M,,0*65
$GPGSA,A,3,10,18,23,27,32,,,,,,,,3.90,2.52,2.97,1*11
$GPGSV,3,1,10,10,54,49,53,18,9,133,50,23,24,75,48,5,0,0,0*79
$GPGSV,3,2,10,27,36,228,48,32,86,166,53,1,86,166,33,2,86,166,32*77
$GPGSV,3,3,10,7,0,0,33,6,0,0,0*49
$GPTXT,2,1,4,FIX,FO=2372 2366,rssi=[5f48 0 0 0],GDOP=4.59,C=84,pps_d=-1 -68482524 0,e=0,refSv=1,CP=2,BG=0 0 0 0 0*6B
$GPTXT,2,2,4,bd=12 12 12 13 19 0 msg=7 5 2 9 0 0 9,0 0 0 0 0 sk=263 0 0 2 0 162 0,0 0 30 0 0 0 0 0 0 0 0 rm=1 2 bdGlo=0 0 0 0 0 0 *75
$GPRMC,181146.00,A,3723.719085,N,12156.609935,W,0.0,,241021,,,A*6B
$GPGGA,181146.00,3723.719085,N,12156.609935,W,1,5,2.52,-27,M,0,M,,0*6B
$GPGSA,A,3,10,18,23,27,32,,,,,,,,3.90,2.52,2.97,1*11
$GPGSV,3,1,10,10,54,49,53,18,9,133,50,23,24,75,46,5,0,0,0*77
$GPGSV,3,2,10,27,36,228,51,32,86,166,52,1,86,166,32,2,86,166,32*7F
$GPGSV,3,3,10,7,0,0,31,6,0,0,0*4B
$GPTXT,2,1,4,FIX,FO=2366 2366,rssi=[5d24 0 0 0],GDOP=4.59,C=84,pps_d=2 -68482671 0,e=0,refSv=1,CP=2,BG=0 0 0 0 0*4B
$GPTXT,2,2,4,bd=12 12 12 13 19 0 msg=7 5 2 9 0 0 9,0 0 0 0 0 sk=265 0 0 2 0 163 0,0 0 32 0 0 0 0 0 0 0 0 rm=1 2 bdGlo=0 0 0 0 0 0 *70
$GPRMC,181147.00,A,3723.719012,N,12156.609989,W,0.0,,241021,,,A*63
$GPGGA,181147.00,3723.719012,N,12156.609989,W,1,5,2.52,-28,M,0,M,,0*6C
$GPGSA,A,3,10,18,23,27,32,,,,,,,,3.90,2.52,2.97,1*11
$GPGSV,3,1,10,10,54,50,53,18,9,133,49,23,24,75,47,5,0,0,0*76
$GPGSV,3,2,10,27,36,228,50,32,86,166,53,1,86,166,33,2,86,166,33*7F
$GPGSV,3,3,10,7,0,0,34,6,0,0,0*4E
$GPTXT,2,1,4,FIX,FO=2363 2366,rssi=[5b6e 0 0 0],GDOP=4.59,C=84,pps_d=-1 -68482822 0,e=0,refSv=1,CP=2,BG=0 0 0 0 0*3B
$GPTXT,2,2,4,bd=12 12 12 13 19 0 msg=7 5 2 9 0 0 9,0 0 0 0 0 sk=267 0 0 2 0 164 0,0 0 34 0 0 0 0 0 0 0 0 rm=1 2 bdGlo=0 0 0 0 0 0 *73
$GPRMC,181148.00,A,3723.719031,N,12156.609848,W,0.0,,241021,,,A*61
$GPGGA,181148.00,3723.719031,N,12156.609848,W,1,5,2.52,-28,M,0,M,,0*6E
$GPGSA,A,3,10,18,23,27,32,,,,,,,,3.90,2.52,2.97,1*11
$GPGSV,3,1,10,10,54,50,53,18,9,133,50,23,24,75,46,5,0,0,0*7F
$GPGSV,3,2,10,27,36,228,51,32,86,166,53,1,86,166,33,2,86,166,33*7E
$GPGSV,3,3,10,7,0,0,33,6,0,0,0*49
$GPTXT,2,1,4,FIX,FO=2365 2366,rssi=[5ee7 0 0 0],GDOP=4.59,C=84,pps_d=3 -68482970 0,e=0,refSv=1,CP=2,BG=0 0 0 0 0*12
$GPTXT,2,2,4,bd=20 12 12 13 19 0 msg=7 5 2 9 0 0 9,0 0 0 0 0 sk=269 0 0 2 0 165 0,0 0 36 0 0 0 0 0 0 0 0 rm=1 2 bdGlo=0 0 0 0 0 0 *7F
$GPRMC,181149.00,A,3723.719159,N,12156.609480,W,0.0,,241021,,,A*67
$GPGGA,181149.00,3723.719159,N,12156.609480,W,1,5,2.52,-28,M,0,M,,0*68
$GPGSA,A,3,10,18,23,27,32,,,,,,,,3.90,2.52,2.97,1*11
$GPGSV,3,1,10,10,54,50,53,18,9,133,49,23,24,75,47,5,0,0,0*76
$GPGSV,3,2,10,27,36,228,52,32,86,166,53,1,86,166,33,2,86,166,33*7D
$GPGSV,3,3,10,7,0,0,33,6,0,0,0*49
$GPTXT,2,1,4,FIX,FO=2350 2364,rssi=[5da4 0 0 0],GDOP=4.59,C=84,pps_d=1 -68483119 0,e=0,refSv=1,CP=2,BG=0 0 0 0 0*14
$GPTXT,2,2,4,bd=20 12 12 13 19 0 msg=7 5 2 9 0 0 9,0 0 0 0 0 sk=271 0 0 2 0 166 0,0 0 38 0 0 0 0 0 0 0 0 rm=1 2 bdGlo=0 0 0 0 0 0 *7B
$GPRMC,181150.00,A,3723.719412,N,12156.608981,W,0.0,,241021,,,A*68
$GPGGA,181150.00,3723.719412,N,12156.608981,W,1,5,2.52,-28,M,0,M,,0*67
$GPGSA,A,3,10,18,23,27,32,,,,,,,,3.90,2.52,2.98,1*1E
$GPGSV,3,1,10,10,54,50,52,18,9,133,49,23,24,75,46,5,0,0,0*76
$GPGSV,3,2,10,27,36,228,52,32,86,166,53,1,86,166,33,2,86,166,32*7C
$GPGSV,3,3,10,7,0,0,32,6,0,0,0*48
$GPTXT,2,1,4,FIX,FO=2382 2366,rssi=[5ace 0 0 0],GDOP=4.59,C=84,pps_d=-3 -68483271 0,e=0,refSv=1,CP=2,BG=0 0 0 0 0*6D
$GPTXT,2,2,4,bd=20 12 12 13 19 0 msg=7 5 2 9 0 0 9,0 0 0 0 0 sk=273 0 0 2 0 167 0,0 0 40 0 0 0 0 0 0 0 0 rm=1 2 bdGlo=0 0 0 0 0 0 *77
$GPRMC,181151.00,A,3723.719739,N,12156.608463,W,0.0,,241021,,,A*62
$GPGGA,181151.00,3723.719739,N,12156.608463,W,1,5,2.53,-29,M,0,M,,0*6D
$GPGSA,A,3,10,18,23,27,32,,,,,,,,3.90,2.53,2.98,1*1F
$GPGSV,3,1,10,10,54,50,52,18,9,133,49,23,24,75,45,5,0,0,0*75
$GPGSV,3,2,10,27,36,228,44,32,86,166,53,1,86,166,32,2,86,166,31*79
$GPGSV,3,3,10,7,0,0,32,6,0,0,19*70
$GPTXT,2,1,4,FIX,FO=2365 2366,rssi=[5b85 0 0 0],GDOP=4.59,C=84,pps_d=-1 -68483422 0,e=0,refSv=1,CP=2,BG=0 0 0 0 0*6E
$GPTXT,2,2,4,bd=20 12 12 13 19 0 msg=7 5 2 9 0 0 9,0 0 0 0 0 sk=275 0 0 2 0 168 0,0 0 42 0 0 0 0 0 0 0 0 rm=2 2 bdGlo=0 0 0 0 0 0 *7F
$GPRMC,181152.00,A,3723.720034,N,12156.607991,W,0.0,,241021,,,A*6E
$GPGGA,181152.00,3723.720034,N,12156.607991,W,1,5,2.53,-29,M,0,M,,0*61
$GPGSA,A,3,10,18,23,27,32,,,,,,,,3.91,2.53,2.98,1*1E
$GPGSV,3,1,9,10,54,50,52,18,9,133,49,23,24,75,46,5,0,0,0*4E
$GPGSV,3,2,9,27,36,228,47,32,86,166,53,1,86,166,33,2,86,166,32*40
$GPGSV,3,3,9,7,0,0,33*77
$GPTXT,2,1,4,FIX,FO=2363 2366,rssi=[5ba3 0 0 0],GDOP=4.59,C=84,pps_d=-1 -68483573 0,e=0,refSv=1,CP=2,BG=0 0 0 0 0*32
$GPTXT,2,2,4,bd=20 12 12 13 19 0 msg=7 5 2 9 0 0 9,0 0 0 0 0 sk=276 0 0 2 0 169 0,0 0 44 0 0 0 0 0 0 0 0 rm=3 2 bdGlo=0 0 0 0 0 0 *7A
$GPRMC,181153.00,A,3723.720208,N,12156.607685,W,0.0,,241021,,,A*68
$GPGGA,181153.00,3723.720208,N,12156.607685,W,1,5,2.53,-29,M,0,M,,0*67
$GPGSA,A,3,10,18,23,27,32,,,,,,,,3.91,2.53,2.98,1*1E
$GPGSV,3,1,9,10,54,50,53,18,9,133,50,23,24,75,45,5,0,0,0*44
$GPGSV,3,2,9,27,36,228,52,32,86,166,53,1,86,166,33,2,86,166,33*45
$GPGSV,3,3,9,7,0,0,33*77
$GPTXT,2,1,4,FIX,FO=2359 2365,rssi=[60ca 0 0 0],GDOP=4.59,C=84,pps_d=1 -68483721 0,e=0,refSv=1,CP=2,BG=0 0 0 0 0*11
$GPTXT,2,2,4,bd=20 12 12 13 19 0 msg=7 5 2 9 0 0 9,0 0 0 0 0 sk=277 0 0 2 0 170 0,0 0 46 0 0 0 0 0 0 0 0 rm=4 2 bdGlo=0 0 0 0 0 0 *76
$GPRMC,181154.00,A,3723.720282,N,12156.607262,W,0.0,,241021,,,A*60
$GPGGA,181154.00,3723.720282,N,12156.607262,W,1,5,2.53,-29,M,0,M,,0*6F
$GPGSA,A,3,10,18,23,27,32,,,,,,,,3.91,2.53,2.98,1*1E
$GPGSV,3,1,9,10,54,50,52,18,9,133,49,23,24,75,46,27,36,228,50*76
$GPGSV,3,2,9,32,86,166,53,1,86,166,33,2,86,166,33,7,0,0,33*4D
$GPGSV,3,3,9,8,0,0,0*48
$GPTXT,2,1,4,FIX,FO=2360 2364,rssi=[5a09 0 0 0],GDOP=4.59,C=84,pps_d=3 -68483869 0,e=0,refSv=1,CP=2,BG=0 0 0 0 0*42
$GPTXT,2,2,4,bd=20 20 12 13 19 0 msg=7 5 2 9 0 0 9,0 0 0 0 0 sk=278 0 0 2 0 171 0,0 0 48 0 0 0 0 0 0 0 0 rm=4 2 bdGlo=0 0 0 0 0 0 *77
$GPRMC,181155.00,A,3723.720216,N,12156.606796,W,0.0,,241021,,,A*63
$GPGGA,181155.00,3723.720216,N,12156.606796,W,1,5,2.53,-29,M,0,M,,0*6C
$GPGSA,A,3,10,18,23,27,32,,,,,,,,3.91,2.53,2.98,1*1E
$GPGSV,3,1,9,10,54,50,51,18,9,133,49,23,24,75,47,27,36,228,50*74
$GPGSV,3,2,9,32,86,166,54,1,86,166,33,2,86,166,33,7,0,0,34*4D
$GPGSV,3,3,9,8,0,0,0*48
$GPTXT,2,1,4,FIX,FO=2364 2364,rssi=[5b5f 0 0 0],GDOP=4.59,C=84,pps_d=2 -68484016 0,e=0,refSv=1,CP=2,BG=0 0 0 0 0*19
$GPTXT,2,2,4,bd=20 20 12 13 19 0 msg=7 5 2 9 0 0 9,0 0 0 0 0 sk=279 0 0 2 0 172 0,0 0 50 0 0 0 0 0 0 0 0 rm=4 2 bdGlo=0 0 0 0 0 0 *7C
$GPRMC,181156.00,A,3723.720041,N,12156.606354,W,0.0,,241021,,,A*6A
$GPGGA,181156.00,3723.720041,N,12156.606354,W,1,5,2.53,-29,M,0,M,,0*65
$GPGSA,A,3,10,18,23,27,32,,,,,,,,3.91,2.53,2.98,1*1E
$GPGSV,3,1,10,10,54,50,50,18,9,133,48,23,24,75,46,9,0,0,0*79
$GPGSV,3,2,10,27,36,228,51,32,86,166,54,1,86,166,33,2,86,166,33*79
$GPGSV,3,3,10,7,0,0,32,8,0,0,0*46
$GPTXT,2,1,4,FIX,FO=2331 2361,rssi=[589b 0 0 0],GDOP=4.59,C=84,pps_d=0 -68484166 0,e=0,refSv=1,CP=2,BG=0 0 0 0 0*4A
$GPTXT,2,2,4,bd=20 20 12 13 19 0 msg=7 5 2 9 0 0 9,0 0 0 0 0 sk=281 0 0 2 0 173 0,0 0 52 0 0 0 0 0 0 0 0 rm=4 2 bdGlo=0 0 0 0 0 0 *78
$GPRMC,181157.00,A,3723.719798,N,12156.605829,W,0.0,,241021,,,A*60
$GPGGA,181157.00,3723.719798,N,12156.605829,W,1,5,2.53,-29,M,0,M,,0*6F
$GPGSA,A,3,10,18,23,27,32,,,,,,,,3.91,2.53,2.98,1*1E
$GPGSV,3,1,10,10,54,50,51,18,9,133,48,23,24,75,49,9,0,0,0*77
$GPGSV,3,2,10,27,36,228,50,32,86,166,53,1,86,166,33,2,86,166,32*7E
$GPGSV,3,3,10,7,0,0,32,8,0,0,0*46
$GPTXT,2,1,4,FIX,FO=2347 2360,rssi=[59d5 0 0 0],GDOP=4.59,C=84,pps_d=-1 -68484317 0,e=0,refSv=1,CP=2,BG=0 0 0 0 0*69
$GPTXT,2,2,4,bd=20 20 12 13 19 0 msg=7 5 2 9 0 0 9,0 0 0 0 0 sk=283 0 0 2 0 174 0,0 0 54 0 0 0 0 0 0 0 0 rm=4 2 bdGlo=0 0 0 0 0 0 *7B
$GPRMC,181158.00,A,3723.719553,N,12156.605311,W,0.0,,241021,,,A*6A
$GPGGA,181158.00,3723.719553,N,12156.605311,W,1,5,2.53,-29,M,0,M,,0*65
$GPGSA,A,3,10,18,23,27,32,,,,,,,,3.91,2.53,2.98,1*1E
$GPGSV,3,1,10,10,54,50,53,18,9,133,48,23,24,75,47,9,0,0,0*7B
$GPGSV,3,2,10,27,36,228,50,32,86,166,53,1,86,166,32,2,86,166,32*7F
$GPGSV,3,3,10,7,0,0,32,8,0,0,0*46
$GPTXT,2,1,4,FIX,FO=2364 2360,rssi=[5cff 0 0 0],GDOP=4.59,C=84,pps_d=-3 -68484470 0,e=0,refSv=1,CP=2,BG=0 0 0 0 0*67
$GPTXT,2,2,4,bd=20 20 12 13 19 0 msg=7 5 2 9 0 0 9,0 0 0 0 0 sk=285 0 0 2 0 175 0,0 0 56 0 0 0 0 0 0 0 0 rm=4 2 bdGlo=0 0 0 0 0 0 *7E
$GPRMC,181159.00,A,3723.719425,N,12156.604900,W,0.0,,241021,,,A*60
$GPGGA,181159.00,3723.719425,N,12156.604900,W,1,5,2.53,-29,M,0,M,,0*6F
$GPGSA,A,3,10,18,23,27,32,,,,,,,,3.91,2.53,2.98,1*1E
$GPGSV,3,1,10,10,54,50,53,18,9,133,49,23,24,75,47,9,0,0,0*7A
$GPGSV,3,2,10,27,36,228,52,32,86,166,53,1,86,166,32,2,86,166,32*7D
$GPGSV,3,3,10,7,0,0,33,8,0,0,0*47
$GPTXT,2,1,4,FIX,FO=2352 2359,rssi=[5c81 0 0 0],GDOP=4.60,C=84,pps_d=-6 -68484626 0,e=0,refSv=1,CP=2,BG=0 0 0 0 0*6F
$GPTXT,2,2,4,bd=20 20 12 13 19 0 msg=7 5 2 9 0 0 9,0 0 0 0 0 sk=287 0 0 2 0 176 0,0 0 58 0 0 0 0 0 0 0 0 rm=4 2 bdGlo=0 0 0 0 0 0 *71
$GPRMC,181200.00,A,3723.719308,N,12156.604824,W,0.0,,241021,,,A*60
$GPGGA,181200.00,3723.719308,N,12156.604824,W,1,5,2.53,-30,M,0,M,,0*67
$GPGSA,A,3,10,18,23,27,32,,,,,,,,3.91,2.53,2.98,1*1E
$GPGSV,3,1,10,10,54,50,53,18,9,133,49,23,24,75,48,9,0,0,0*75
$GPGSV,3,2,10,27,36,228,50,32,86,165,53,1,86,165,32,2,86,165,32*7C
$GPGSV,3,3,10,7,86,165,32,8,0,0,0*7A
$GPTXT,2,1,4,FIX,FO=2352 2359,rssi=[5eec 0 0 0],GDOP=4.60,C=84,pps_d=-4 -68484779 0,e=0,refSv=1,CP=2,BG=0 0 0 0 0*6F
$GPTXT,2,2,4,bd=20 20 20 13 19 0 msg=8 5 2 10 0 0 10,0 0 0 0 0 sk=289 0 0 3 0 176 0,0 0 60 0 0 0 0 0 0 0 0 rm=4 2 bdGlo=0 0 0 0 0 0 *7B
$GPRMC,181201.00,A,3723.719210,N,12156.605096,W,0.0,,241021,,,A*69
$GPGGA,181201.00,3723.719210,N,12156.605096,W,1,5,2.53,-30,M,0,M,,0*6E
$GPGSA,A,3,10,18,23,27,32,,,,,,,,3.91,2.53,2.98,1*1E
$GPGSV,3,1,10,10,54,50,53,18,9,133,49,23,24,75,47,9,0,0,0*7A
$GPGSV,3,2,10,27,36,228,50,32,86,165,51,1,86,165,30,2,86,165,30*7E
$GPGSV,3,3,10,7,86,165,30,8,0,0,0*78
$GPTXT,2,1,4,FIX,FO=2381 2361,rssi=[5bc7 0 0 0],GDOP=4.60,C=84,pps_d=-2 -68484931 0,e=0,refSv=1,CP=2,BG=0 0 0 0 0*3B
$GPTXT,2,2,4,bd=20 20 20 13 19 0 msg=8 5 2 10 0 0 10,0 0 0 0 0 sk=291 0 0 3 0 176 0,0 0 63 0 0 0 0 0 0 0 0 rm=4 2 bdGlo=0 0 0 0 0 0 *71
$GPRMC,181202.00,A,3723.719194,N,12156.605544,W,0.0,,241021,,,A*6F
$GPGGA,181202.00,3723.719194,N,12156.605544,W,1,5,2.53,-31,M,0,M,,0*69
$GPGSA,A,3,10,18,23,27,32,,,,,,,,3.91,2.53,2.98,1*1E
$GPGSV,3,1,10,10,54,50,53,18,9,133,47,23,24,75,48,9,0,0,0*7B
$GPGSV,3,2,10,27,36,228,50,32,86,165,52,1,86,165,32,2,86,165,31*7E
$GPGSV,3,3,10,7,86,165,31,8,0,0,0*79
$GPTXT,2,1,4,FIX,FO=2363 2361,rssi=[5eff 0 0 0],GDOP=4.60,C=84,pps_d=-7 -68485087 0,e=0,refSv=1,CP=2,BG=0 0 0 0 0*64
$GPTXT,2,2,4,bd=20 20 20 13 19 0 msg=8 5 2 10 0 0 10,0 0 0 0 0 sk=293 0 0 3 0 176 0,0 0 66 0 0 0 0 0 0 0 0 rm=4 2 bdGlo=0 0 0 0 0 0 *76
$GPRMC,181203.00,A,3723.719236,N,12156.606098,W,0.0,,241021,,,A*62
$GPGGA,181203.00,3723.719236,N,12156.606098,W,1,5,2.53,-31,M,0,M,,0*64
$GPGSA,A,3,10,18,23,27,32,,,,,,,,3.91,2.53,2.98,1*1E
$GPGSV,3,1,10,10,54,50,52,18,9,133,47,23,24,75,47,9,0,0,0*75
$GPGSV,3,2,10,27,36,228,50,32,86,165,52,1,86,165,32,2,86,165,31*7E
$GPGSV,3,3,10,7,86,165,31,8,0,0,0*79
$GPTXT,2,1,4,FIX,FO=2350 2360,rssi=[5e5f 0 0 0],GDOP=4.60,C=84,pps_d=-4 -68485241 0,e=0,refSv=1,CP=2,BG=0 0 0 0 0*3D
$GPTXT,2,2,4,bd=20 20 20 13 19 0 msg=8 5 2 10 0 0 10,0 0 0 0 0 sk=295 0 0 3 0 176 0,0 0 69 0 0 0 0 0 0 0 0 rm=4 2 bdGlo=0 0 0 0 0 0 *7F
$GPRMC,181204.00,A,3723.719335,N,12156.606673,W,0.0,,241021,,,A*64
$GPGGA,181204.00,3723.719335,N,12156.606673,W,1,5,2.53,-31,M,0,M,,0*62
$GPGSA,A,3,10,18,23,27,32,,,,,,,,3.91,2.53,2.98,1*1E
$GPGSV,3,1,10,10,54,50,52,18,9,133,47,23,24,75,47,9,0,0,0*75
$GPGSV,3,2,10,27,36,228,50,32,86,165,53,1,86,165,32,2,86,165,32*7C
$GPGSV,3,3,10,7,86,165,32,8,0,0,0*7A
$GPTXT,2,1,4,FIX,FO=2366 2361,rssi=[5853 0 0 0],GDOP=4.60,C=84,pps_d=-6 -68485396 0,e=0,refSv=1,CP=2,BG=0 0 0 0 0*38
$GPTXT,2,2,4,bd=20 20 20 13 19 0 msg=8 5 2 10 0 0 10,0 0 0 0 0 sk=297 0 0 3 0 176 0,0 0 72 0 0 0 0 0 0 0 0 rm=4 2 bdGlo=0 0 0 0 0 0 *77
$GPRMC,181205.00,A,3723.719441,N,12156.607257,W,0.0,,241021,,,A*62
$GPGGA,181205.00,3723.719441,N,12156.607257,W,1,5,2.53,-32,M,0,M,,0*67
$GPGSA,A,3,10,18,23,27,32,,,,,,,,3.91,2.53,2.98,1*1E
$GPGSV,3,1,10,10,54,50,53,18,9,133,46,23,24,75,46,9,0,0,0*74
$GPGSV,3,2,10,27,36,228,48,32,86,165,53,1,86,165,33,2,86,165,32*74
$GPGSV,3,3,10,7,86,165,32,8,0,0,0*7A
$GPTXT,2,1,4,FIX,FO=2383 2363,rssi=[590a 0 0 0],GDOP=4.60,C=84,pps_d=-7 -68485554 0,e=0,refSv=1,CP=2,BG=0 0 0 0 0*6E
$GPTXT,2,2,4,bd=20 20 20 13 19 0 msg=8 5 2 10 0 0 10,0 0 0 0 0 sk=299 0 0 3 0 176 0,0 0 75 0 0 0 0 0 0 0 0 rm=4 2 bdGlo=0 0 0 0 0 0 *7E
$GPRMC,181206.00,A,3723.719540,N,12156.607757,W,0.0,,241021,,,A*64
$GPGGA,181206.00,3723.719540,N,12156.607757,W,1,5,2.53,-32,M,0,M,,0*61
$GPGSA,A,3,10,18,23,27,32,,,,,,,,3.91,2.53,2.98,1*1E
$GPGSV,3,1,10,10,54,50,53,18,9,133,46,23,24,75,48,9,0,0,32*4B
$GPGSV,3,2,10,27,36,228,48,32,86,165,53,1,86,165,33,2,86,165,32*74
$GPGSV,3,3,10,7,86,165,32,8,0,0,0*7A
$GPTXT,2,1,4,FIX,FO=2373 2364,rssi=[5a0d 0 0 0],GDOP=4.60,C=84,pps_d=-5 -68485708 0,e=0,refSv=1,CP=2,BG=0 0 0 0 0*32
$GPTXT,2,2,4,bd=20 20 20 21 19 0 msg=8 6 3 10 0 0 10,0 0 0 0 0 sk=301 0 0 3 0 176 0,0 0 78 0 0 0 0 0 0 0 0 rm=4 2 bdGlo=0 0 0 0 0 0 *70
$GPRMC,181207.00,A,3723.719638,N,12156.608031,W,0.0,,241021,,,A*61
$GPGGA,181207.00,3723.719638,N,12156.608031,W,1,5,2.53,-33,M,0,M,,0*65
$GPGSA,A,3,10,18,23,27,32,,,,,,,,3.91,2.53,2.98,1*1E
$GPGSV,3,1,10,10,54,50,53,18,9,133,43,23,24,75,47,9,0,0,31*42
$GPGSV,3,2,10,27,36,228,49,32,86,165,53,1,86,165,32,2,86,165,32*74
$GPGSV,3,3,10,7,86,165,32,8,0,0,0*7A
$GPTXT,2,1,4,FIX,FO=2368 2364,rssi=[5b8c 0 0 0],GDOP=4.60,C=84,pps_d=-7 -68485865 0,e=0,refSv=1,CP=2,BG=0 0 0 0 0*32
$GPTXT,2,2,4,bd=20 20 20 21 19 0 msg=8 6 3 10 0 0 10,0 0 0 0 0 sk=303 0 0 3 0 176 0,0 0 81 0 0 0 0 0 0 0 0 rm=4 2 bdGlo=0 0 0 0 0 0 *74
$GPRMC,181208.00,A,3723.719884,N,12156.608253,W,0.0,,241021,,,A*61
$GPGGA,181208.00,3723.719884,N,12156.608253,W,1,5,2.54,-33,M,0,M,,0*62
$GPGSA,A,3,10,18,23,27,32,,,,,,,,3.91,2.54,2.98,1*19
$GPGSV,3,1,10,10,54,50,52,18,9,133,51,23,24,75,47,9,0,0,29*49
$GPGSV,3,2,10,27,36,228,49,32,86,165,51,1,86,165,31,2,86,165,30*77
$GPGSV,3,3,10,7,86,165,31,8,0,0,0*79
$GPTXT,2,1,4,FIX,FO=2353 2363,rssi=[5c70 0 0 0],GDOP=4.60,C=84,pps_d=-1 -68486016 0,e=0,refSv=1,CP=2,BG=0 0 0 0 0*69
$GPTXT,2,2,4,bd=20 20 20 21 19 0 msg=8 6 3 10 0 0 10,0 0 0 0 0 sk=305 0 0 3 0 176 0,0 0 84 0 0 0 0 0 0 0 0 rm=4 2 bdGlo=0 0 0 0 0 0 *77
$GPRMC,181209.00,A,3723.720183,N,12156.608473,W,0.0,,241021,,,A*60
$GPGGA,181209.00,3723.720183,N,12156.608473,W,1,5,2.54,-33,M,0,M,,0*63
$GPGSA,A,3,10,18,23,27,32,,,,,,,,3.92,2.54,2.98,1*1A
$GPGSV,3,1,10,10,54,50,50,18,9,133,48,23,24,75,48,9,0,0,31*45
$GPGSV,3,2,10,27,36,228,49,32,86,165,51,1,86,165,31,2,86,165,30*77
$GPGSV,3,3,10,7,86,165,30,8,0,0,0*78
$GPTXT,2,1,4,FIX,FO=2350 2362,rssi=[5b23 0 0 0],GDOP=4.60,C=84,pps_d=5 -68486161 0,e=0,refSv=1,CP=2,BG=0 0 0 0 0*44
$GPTXT,2,2,4,bd=20 20 20 21 19 0 msg=8 6 3 10 0 0 10,0 0 0 0 0 sk=307 0 0 3 0 176 0,0 0 87 0 0 0 0 0 0 0 0 rm=4 2 bdGlo=0 0 0 0 0 0 *76
$GPRMC,181210.00,A,3723.720481,N,12156.608605,W,0.0,,241021,,,A*6C
$GPGGA,181210.00,3723.720481,N,12156.608605,W,1,5,2.54,-33,M,0,M,,0*6F
$GPGSA,A,3,10,18,23,27,32,,,,,,,,3.92,2.54,2.98,1*1A
$GPGSV,3,1,10,10,54,50,51,18,9,133,47,23,24,75,49,9,0,0,29*43
$GPGSV,3,2,10,27,36,228,49,32,86,165,50,1,86,165,30,2,86,165,30*77
$GPGSV,3,3,10,7,86,165,29,8,0,0,0*70
$GPTXT,2,1,4,FIX,FO=2378 2363,rssi=[5ad4 0 0 0],GDOP=4.60,C=84,pps_d=5 -68486306 0,e=0,refSv=1,CP=2,BG=0 0 0 0 0*1E
$GPTXT,2,2,4,bd=20 20 20 21 19 0 msg=8 6 3 10 0 0 10,0 0 0 0 0 sk=309 0 0 3 0 176 0,0 0 90 0 0 0 0 0 0 0 0 rm=4 2 bdGlo=0 0 0 0 0 0 *7E
$GPRMC,181211.00,A,3723.720772,N,12156.608676,W,0.0,,241021,,,A*66
$GPGGA,181211.00,3723.720772,N,12156.608676,W,1,5,2.54,-33,M,0,M,,0*65
$GPGSA,A,3,10,18,23,27,32,,,,,,,,3.92,2.54,2.98,1*1A
$GPGSV,3,1,10,10,54,50,53,18,9,133,48,23,24,75,48,9,0,0,32*45
$GPGSV,3,2,10,27,36,228,49,32,86,165,51,1,86,165,30,2,86,165,30*76
$GPGSV,3,3,10,7,86,165,31,8,0,0,0*79
$GPTXT,2,1,4,FIX,FO=2359 2363,rssi=[5a2a 0 0 0],GDOP=4.60,C=84,pps_d=4 -68486451 0,e=0,refSv=1,CP=2,BG=0 0 0 0 0*1A
$GPTXT,2,2,4,bd=20 20 20 21 19 0 msg=8 6 3 10 0 0 10,0 0 0 0 0 sk=311 0 0 3 0 176 0,0 0 93 0 0 0 0 0 0 0 0 rm=4 2 bdGlo=0 0 0 0 0 0 *74
$GPRMC,181212.00,A,3723.720978,N,12156.608907,W,0.0,,241021,,,A*68
$GPGGA,181212.00,3723.720978,N,12156.608907,W,1,5,2.54,-33,M,0,M,,0*6B
$GPGSA,A,3,10,18,23,27,32,,,,,,,,3.92,2.54,2.98,1*1A
$GPGSV,3,1,10,10,54,50,52,18,9,133,49,23,24,75,48,9,0,0,31*46
$GPGSV,3,2,10,27,36,228,48,32,86,165,52,1,86,165,31,2,86,165,30*75
$GPGSV,3,3,10,7,86,165,31,8,0,0,0*79
$GPTXT,2,1,4,FIX,FO=2359 2363,rssi=[5b25 0 0 0],GDOP=4.60,C=84,pps_d=4 -68486598 0,e=0,refSv=32,CP=2,BG=0 0 0 0 0*79
$GPTXT,2,2,4,bd=20 20 20 21 25 2 msg=8 7 4 10 0 0 10,0 0 0 0 0 sk=313 0 0 3 0 176 0,0 0 95 0 0 0 0 1 0 0 0 rm=4 2 bdGlo=0 0 0 0 0 0 *7A
$GPRMC,181213.00,A,3723.721079,N,12156.609241,W,0.0,,241021,,,A*68
$GPGGA,181213.00,3723.721079,N,12156.609241,W,1,5,2.54,-33,M,0,M,,0*6B
$GPGSA,A,3,10,18,23,27,32,,,,,,,,3.92,2.54,2.98,1*1A
$GPGSV,3,1,10,10,54,50,51,18,9,133,46,23,24,75,48,9,0,0,30*4B
$GPGSV,3,2,10,27,36,228,47,32,86,165,51,1,86,165,27,2,86,165,25*7A
$GPGSV,3,3,10,7,86,165,28,8,0,0,0*71
$GPTXT,2,1,4,FIX,FO=2378 2364,rssi=[5d90 0 0 0],GDOP=4.60,C=84,pps_d=2 -68486746 0,e=0,refSv=32,CP=2,BG=0 0 0 0 0*72
$GPTXT,2,2,4,bd=20 20 20 21 25 2 msg=8 7 4 10 0 0 10,0 0 0 0 0 sk=315 0 0 3 0 176 0,0 0 95 0 0 0 0 4 0 0 0 rm=4 2 bdGlo=0 0 0 0 0 0 *79
$GPRMC,181214.00,A,3723.721072,N,12156.609598,W,0.0,,241021,,,A*67
$GPGGA,181214.00,3723.721072,N,12156.609598,W,1,5,2.54,-33,M,0,M,,0*64
$GPGSA,A,3,10,18,23,27,32,,,,,,,,3.92,2.54,2.98,1*1A
$GPGSV,3,1,10,10,54,50,53,18,9,133,46,23,24,75,46,9,0,0,31*46
$GPGSV,3,2,10,27,36,228,50,32,86,165,52,1,86,165,25,2,86,165,24*7C
$GPGSV,3,3,10,7,86,165,21,8,0,0,0*78
$GPTXT,2,1,4,FIX,FO=2361 2364,rssi=[5ca4 0 0 0],GDOP=4.61,C=84,pps_d=2 -68486894 0,e=0,refSv=32,CP=2,BG=0 0 0 0 0*20
$GPTXT,2,2,4,bd=20 20 20 21 25 2 msg=8 7 4 10 0 0 10,0 0 0 0 0 sk=316 0 0 3 0 177 0,0 0 95 0 0 0 0 7 0 0 0 rm=4 2 bdGlo=0 0 0 0 0 0 *78
$GPRMC,181215.00,A,3723.720912,N,12156.609948,W,0.0,,241021,,,A*69
$GPGGA,181215.00,3723.720912,N,12156.609948,W,1,5,2.54,-33,M,0,M,,0*6A
$GPGSA,A,3,10,18,23,27,32,,,,,,,,3.92,2.54,2.98,1*1A
$GPGSV,3,1,10,10,54,50,53,18,9,133,47,23,24,75,47,9,0,0,32*45
$GPGSV,3,2,10,27,36,228,49,32,86,164,53,1,86,164,22,2,86,164,24*73
$GPGSV,3,3,10,7,86,164,24,8,0,0,0*7C
$GPTXT,2,1,4,FIX,FO=2355 2363,rssi=[5d0d 0 0 0],GDOP=4.61,C=84,pps_d=4 -68487040 0,e=0,refSv=32,CP=2,BG=0 0 0 0 0*20
$GPTXT,2,2,4,bd=20 20 20 21 25 2 msg=8 7 4 10 0 0 10,0 0 0 0 0 sk=317 0 0 3 0 178 0,0 0 95 0 0 0 0 10 0 0 0 rm=4 2 bdGlo=0 0 0 0 0 0 *40
$GPRMC,181216.00,A,3723.720719,N,12156.610183,W,0.0,,241021,,,A*68
$GPGGA,181216.00,3723.720719,N,12156.610183,W,1,5,2.54,-32,M,0,M,,0*6A
$GPGSA,A,3,10,18,23,27,32,,,,,,,,3.92,2.54,2.98,1*1A
$GPGSV,3,1,10,10,54,50,53,18,9,133,47,23,24,75,48,9,0,0,30*48
